distanciaNumero,distanciaDescripcion,banderaId,lat,lng,sucursalNombre,id,sucursalTipo,provincia,direccion,banderaDescripcion,localidad,comercioRazonSocial,comercioId,sucursalId
0.4546,0.45 kilómetros,2,-34.923011,-57.949931,La Plata II,10-2-144,Supermercado,AR-B,Calle 12 1200,Market,La Plata,INC S.A.,10,144
0.5179,0.52 kilómetros,1,-34.9236,-57.9495,BAZAR AVENIDA SA - La Plata,2008-1-191,Tradicional,AR-B,Calle 12 1226,MEGATONE,La Plata,BAZAR AVENIDA S.A.,2008,191
0.538,0.54 kilómetros,1,-34.9168,-57.9562,Pinocho VIII.,9-1-640,Supermercado,AR-B,Calle 47 Noreste 0,Vea,LA PLATA,Jumbo Retail Argentina S.A.,9,640
0.7443,0.74 kilómetros,1,-34.9221623,-57.9626283,5475 - LA PLATA,15-1-5475,Autoservicio,AR-B,Calle 48 N944 None,Supermercados DIA,BUENOS AIRES,DIA Argentina S.A,15,5475
0.8551,0.86 kilómetros,1,-34.913786,-57.953546,LA PLATA,2003-1-7780,Tradicional,AR-B,Calle 8 735,Samsung,LA PLATA,GMRA S.A.,2003,7780
0.884,0.88 kilómetros,1,-34.9136105,-57.9528001,La Plata,2005-1-76,Supermercado,AR-B,Calle 47 630,Naldo,La Plata,Naldo Lombardi SA,2005,76
0.9165,0.92 kilómetros,2,-34.913497,-57.951821,La Plata I,10-2-109,Supermercado,AR-B,Calle 7 767,Market,La Plata,INC S.A.,10,109
0.9617,0.96 kilómetros,1,-34.9129897,-57.9522388,LaPlata [Av. N° 7 n° 743],24-1-202,Supermercado,AR-B,Av. N° 7 743,SIMPLICITY,LA PLATA,Farmacity S.A.,24,202
0.9708,0.97 kilómetros,1,-34.91841417701545,-57.94456619607063,La Plata,13-1-136,Hipermercado,AR-B,Avenida 7 1224,Cooperativa Obrera Limitada de Consumo y Vivienda,La Plata,Cooperativa Obrera Limitada de Consumo y Vivienda,13,136
0.9722,0.97 kilómetros,1,-34.930175,-57.953545,LA PLATA,3-1-65,Autoservicio,AR-B,Diagonal 74 Esq. 18 Y 19 2291,DEHEZA S.A.I.C.F. e I.,LA PLATA,Deheza S.A.I.C.F. e I.,3,65
1.0449,1.04 kilómetros,1,-34.9132587,-57.9601721,LA PLATA ,12-1-149,Supermercado,AR-B,Calle 43 782,COTO CICSA,La Plata,Coto Centro Integral de Comercialización S.A.,12,149
1.1187,1.12 kilómetros,1,-34.911498,-57.956494,LA PLATA,3-1-66,Autoservicio,AR-B,Av. 7 Esq. 45 641,DEHEZA S.A.I.C.F. e I.,LA PLATA,Deheza S.A.I.C.F. e I.,3,66
1.1699,1.17 kilómetros,1,-34.912719,-57.947353,PASAJE RODRIGO,2003-1-7120,Tradicional,AR-B,Calle 50 488,Samsung,LA PLATA,GMRA S.A.,2003,7120
1.2801,1.28 kilómetros,1,-34.909913,-57.954619,5441 - LA PLATA,15-1-5441,Autoservicio,AR-B,Av 44 561,Supermercados DIA,BUENOS AIRES,DIA Argentina S.A,15,5441
1.305,1.30 kilómetros,1,-34.928259,-57.942885,5366 - LA PLATA,15-1-5366,Autoservicio,AR-B,Calle 12 1514,Supermercados DIA,BUENOS AIRES,DIA Argentina S.A,15,5366
1.3194,1.32 kilómetros,2,-34.9154,-57.9421,La Plata III.,9-2-62,Supermercado,AR-B,Diagonal 79 962,Disco,LA PLATA,Jumbo Retail Argentina S.A.,9,62
1.3542,1.35 kilómetros,1,-34.9096524,-57.950733,LA PLATA,2004-1-15,Hipermercado,AR-B,Calle 47 427,Coppel S.A.,La Plata,COPPEL S.A.,2004,15
1.6483,1.65 kilómetros,1,-34.9077959,-57.9616369,5511 - LA PLATA,15-1-5511,Autoservicio,AR-B,Av. 7 423 None,Supermercados DIA,BUENOS AIRES,DIA Argentina S.A,15,5511
1.6646,1.66 kilómetros,1,-34.9068,-57.9506,La Plata II.,9-1-36,Supermercado,AR-B,45 377,Vea,LA PLATA,Jumbo Retail Argentina S.A.,9,36
1.9803,1.98 kilómetros,1,-34.904968,-57.962845,5410 - LA PLATA,15-1-5410,Autoservicio,AR-B,Av 7 272,Supermercados DIA,BUENOS AIRES,DIA Argentina S.A,15,5410
2.4431,2.44 kilómetros,2,-34.9349,-57.9757,La Plata I.,9-2-42,Supermercado,AR-B,Calle 30 Y Calle 47 777,Disco,LA PLATA,Jumbo Retail Argentina S.A.,9,42
2.462,2.46 kilómetros,1,-34.9362,-57.9344,Pinocho IV.,9-1-636,Supermercado,AR-B,Calle 13 1936,Vea,LA PLATA,Jumbo Retail Argentina S.A.,9,636
2.6689,2.67 kilómetros,1,-34.909921,-57.98016,5396 - LA PLATA,15-1-5396,Autoservicio,AR-B,Av 532 1131,Supermercados DIA,BUENOS AIRES,DIA Argentina S.A,15,5396
2.7382,2.74 kilómetros,1,-34.90023,-57.969828,LA PLATA,3-1-1344,Autoservicio,AR-B,Av. 7 Esq. Calle 532 623,DEHEZA S.A.I.C.F. e I.,LA PLATA,Deheza S.A.I.C.F. e I.,3,1344
2.8728,2.87 kilómetros,1,-34.9103,-57.9829,Pinocho VI.,9-1-638,Supermercado,AR-B,Calle 19 143,Vea,LA PLATA,Jumbo Retail Argentina S.A.,9,638
2.9789,2.98 kilómetros,1,-34.90692,-57.92712,BERISSO,19-1-00525,Autoservicio,AR-B,Calle 122 Y 60 La Plata 0,FULL,BERISSO,Operadora de Estaciones de Servicios S.A.,19,00525
3.256,3.26 kilómetros,1,-34.892971,-57.945932,1034 - ENSENADA,15-1-1034,Autoservicio,AR-B,Av 122 Entre Calle 38 Y 40 39,Supermercados DIA,BUENOS AIRES,DIA Argentina S.A,15,1034
3.4566,3.46 kilómetros,1,-34.948279,-57.973761,EL NENE 2,44-1-2,Supermercado,AR-B,Calle 59 2086,SUPERMERCADOS EL NENE,LA PLATA,Supermercado El Nene S.A.,44,2
3.5274,3.53 kilómetros,1,-34.939137,-57.986609,5435 - LA PLATA,15-1-5435,Autoservicio,AR-B,Av 44 2099,Supermercados DIA,BUENOS AIRES,DIA Argentina S.A,15,5435
3.6179,3.62 kilómetros,1,-34.951727,-57.969232,5402 - LA PLATA,15-1-5402,Autoservicio,AR-B,Calle 63 2085,Supermercados DIA,BUENOS AIRES,DIA Argentina S.A,15,5402
3.6308,3.63 kilómetros,1,-34.937186,-57.919690,LA ESQUINA DE MINGO,44-1-7,Supermercado,AR-B,Avenida 7 2349,SUPERMERCADOS EL NENE,LA PLATA,Supermercado El Nene S.A.,44,7
3.6849,3.68 kilómetros,1,-34.889200,-57.964167,AUTOSERVICIO M Y C,44-1-8,Supermercado,AR-B,Avenida 528 Bis 331,SUPERMERCADOS EL NENE,LA PLATA,Supermercado El Nene S.A.,44,8
3.7083,3.71 kilómetros,1,-34.8955,-57.9801,Pinocho I.,9-1-633,Supermercado,AR-B,Calle 525 1316,Vea,LA PLATA,Jumbo Retail Argentina S.A.,9,633
4.2099,4.21 kilómetros,1,-34.9569782,-57.9707098,5488 - LA PLATA,15-1-5488,Autoservicio,AR-B,Av. 66 2232 None,Supermercados DIA,BUENOS AIRES,DIA Argentina S.A,15,5488
4.2998,4.30 kilómetros,1,-34.925723,-57.907763,1020 - LA PLATA,15-1-1020,Autoservicio,AR-B,Cl Av. 120 Esq. 80 None,Supermercados DIA,BUENOS AIRES,DIA Argentina S.A,15,1020
4.7533,4.75 kilómetros,1,-34.957797,-57.982070,EL NENE 1,44-1-1,Supermercado,AR-B,Avenida 60 2562,SUPERMERCADOS EL NENE,LA PLATA,Supermercado El Nene S.A.,44,1
4.8975,4.90 kilómetros,1,-34.893655,-57.996156,La Plata,10-1-8,Hipermercado,AR-B,Camino Gral. Belgrano 0,Hipermercado Carrefour,La Plata,INC S.A.,10,8
5.173,5.17 kilómetros,5,-34.890490,-57.996848,La Plata,11-5-3601,Hipermercado,AR-B,Camino Centenario 1876,Walmart SuperCenter,LA PLATA NOROESTE DE LA CALLE 50,Wal Mart Argentina S.R.L.,11,3601
5.2924,5.29 kilómetros,1,-34.951207,-57.999801,ALMACENES DE MARCA,46-1-3,Supermercado,AR-B,Avenida 44 2739,ALMACENES DE MARCA,LA PLATA,Almacenes de Marca S.A.,46,3
7.4084,7.41 kilómetros,1,-34.87522,-57.89605,BERISSO PUENTE ROMA,19-1-00523,Autoservicio,AR-B,Calle 2 Y Calle 158 0,FULL,Berisso,Operadora de Estaciones de Servicios S.A.,19,00523
7.5142,7.51 kilómetros,1,-34.8763557,-57.8931961,5472 - BERISSO,15-1-5472,Autoservicio,AR-B,Cl 158 589 None,Supermercados DIA,BUENOS AIRES,DIA Argentina S.A,15,5472
7.6165,7.62 kilómetros,1,-34.86586,-58.003415,AUT BSAS-LA PLATA - A BS AS,3-1-1736,Autoservicio,AR-B,Autopista La Plata - Bs. As Mano A Capital Federal 5700,DEHEZA S.A.I.C.F. e I.,ENSENADA,Deheza S.A.I.C.F. e I.,3,1736
7.6583,7.66 kilómetros,1,-34.86542,-57.905602,5425 - ENSENADA,15-1-5425,Autoservicio,AR-B,Av Horacio Cestino 561,Supermercados DIA,BUENOS AIRES,DIA Argentina S.A,15,5425
7.9231,7.92 kilómetros,1,-34.8571545,-57.9168134,163 - ENSENADA,15-1-163,Autoservicio,AR-B,Cl Bossigna 783,Supermercados DIA,BUENOS AIRES,DIA Argentina S.A,15,163
8.2225,8.22 kilómetros,1,-34.860558,-57.9032607,55 - ENSENADA,15-1-55,Autoservicio,AR-B,Cl La Merced 220,Supermercados DIA,BUENOS AIRES,DIA Argentina S.A,15,55
8.4897,8.49 kilómetros,1,-34.92182,-58.04743,FRIGORIFICO GORINA S.A.I.C.,1000-1-1,Tradicional,AR-B,Calle 501 None,FRIGORIFICO GORINA S.A.I.C.,La Plata,FRIGORIFICO GORINA S.A.I.C.,1000,1
8.8123,8.81 kilómetros,1,-34.8702073,-57.8808734,41 - BERISSO,15-1-41,Autoservicio,AR-B,Cl Montevideo 1020,Supermercados DIA,BUENOS AIRES,DIA Argentina S.A,15,41
9.5014,9.50 kilómetros,1,-34.8742082,-57.8678337,43 - BERISSO,15-1-43,Autoservicio,AR-B,Cl Montevideo 2181,Supermercados DIA,BUENOS AIRES,DIA Argentina S.A,15,43
10.1287,10.13 kilómetros,2,-34.8819,-58.0544,City Bell.,9-2-111,Supermercado,AR-B,Camino Gral Manuel Belgrano 167,Disco,CITY BELL,Jumbo Retail Argentina S.A.,9,111
13.6473,13.65 kilómetros,3,-34.851160,-58.077030,Av. Arana 231,10-3-445,Supermercado,AR-B,Av. Arana 231,Express,La Plata,INC S.A.,10,445
18.293,18.29 kilómetros,1,-34.811905,-58.104034,AUT BSAS-LA PLATA - A LA PLATA,3-1-1735,Autoservicio,AR-B,Autopista Bs. As. - La Plata Mano A La Plata 17400,DEHEZA S.A.I.C.F. e I.,BERAZATEGUI,Deheza S.A.I.C.F. e I.,3,1735
23.2916,23.29 kilómetros,1,-34.796523,-58.159203,ALMACENES PAMPAS,45-1-5,Supermercado,AR-B,Autopista Buenos Aires - Mar Del Plata 32,ALMACENES PAMPAS,BERAZATEGUI,Almacenes Pampas S.A. ,45,5
23.3361,23.34 kilómetros,1,-34.8405,-58.1901,Gutierrez,23-1-6277,Autoservicio,AR-B,Ruta 36 Km. 34 None,Axion Energy,Berazategui,Pan American Energy LLC Argentina,23,6277
24.6289,24.63 kilómetros,1,-34.8097369,-58.1872598,73 - BERAZATEGUI,15-1-73,Autoservicio,AR-B,Cl Heroes De Malvina 2839,Supermercados DIA,BUENOS AIRES,DIA Argentina S.A,15,73
27.0318,27.03 kilómetros,1,-34.7627,-58.1787,AUBASA BA-LP,23-1-6297,Autoservicio,AR-B,Au Dr. Ricardo Balbín None,Axion Energy,Berazategui,Pan American Energy LLC Argentina,23,6297
27.0689,27.07 kilómetros,1,-34.829305,-58.228639,93 - FLORENCIO VARELA,15-1-93,Autoservicio,AR-B,Cl Lujan Esq. Olavarria 2002,Supermercados DIA,BUENOS AIRES,DIA Argentina S.A,15,93
28.2113,28.21 kilómetros,1,-34.7652851,-58.1979191,123 - BERAZATEGUI,15-1-123,Autoservicio,AR-B,Av Mitre 2101,Supermercados DIA,BUENOS AIRES,DIA Argentina S.A,15,123
29.183,29.18 kilómetros,3,-34.760264,-58.206631,Avenida 14 5072,10-3-495,Autoservicio,AR-B,Avenida 14 5072,Express,Berazategui,INC S.A.,10,495
29.6684,29.67 kilómetros,1,-34.7672566,-58.2195186,1023 - BERAZATEGUI,15-1-1023,Autoservicio,AR-B,Cl Calle N°14 3880,Supermercados DIA,BUENOS AIRES,DIA Argentina S.A,15,1023
30.8292,30.83 kilómetros,1,-34.753869,-58.223347,Quilmes [Rivadavia 243],24-1-238,Supermercado,AR-B,Rivadavia 243,SIMPLICITY,QUILMES,Farmacity S.A.,24,238
31.0383,31.04 kilómetros,1,-34.7499225,-58.2225527,5140 - QUILMES,15-1-5140,Autoservicio,AR-B,Mitre 6742,Supermercados DIA,BUENOS AIRES,DIA Argentina S.A,15,5140
31.6706,31.67 kilómetros,1,-34.819423,-58.27799,1017 - FLORENCIO VARELA,15-1-1017,Autoservicio,AR-B,Av Belgica 61,Supermercados DIA,BUENOS AIRES,DIA Argentina S.A,15,1017
31.7411,31.74 kilómetros,1,-34.8104609,-58.2744353,Florencio Varela Ii,2002-1-143,Tradicional,AR-B,Bernardo De Monteagudo 3351,Fravega,Florencio Varela,FRAVEGA S A C I E I,2002,143
31.7532,31.75 kilómetros,1,-34.7520628,-58.2343069,79 - EZPELETA,15-1-79,Autoservicio,AR-B,Cl San Martin 5355,Supermercados DIA,BUENOS AIRES,DIA Argentina S.A,15,79
31.8893,31.89 kilómetros,1,-34.7542213,-58.2380455,5222 - EZPELETA,15-1-5222,Autoservicio,AR-B,Av Centenario 5270 None,Supermercados DIA,BUENOS AIRES,DIA Argentina S.A,15,5222
31.9195,31.92 kilómetros,1,-34.807041,-58.274778,Florencio Varela,24-1-244,Supermercado,AR-B,Monteagudo 3016,SIMPLICITY,FLORENCIO VARELA,Farmacity S.A.,24,244
31.9299,31.93 kilómetros,3,-34.808046,-58.275429,Sallares 151,10-3-449,Supermercado,AR-B,Sallares 151,Express,Florencio Varela,INC S.A.,10,449
31.9755,31.98 kilómetros,3,-34.753173,-58.238291,Av. Centenario 5331,10-3-452,Autoservicio,AR-B,Av. Centenario 5331,Express,Ezpeleta,INC S.A.,10,452
32.2705,32.27 kilómetros,3,-34.780470,-58.263130,C. General Belgrano 6498,10-3-444,Autoservicio,AR-B,Camino Gral. Belgrano 6498,Express,Florencio Varela,INC S.A.,10,444
32.2986,32.30 kilómetros,1,-34.809,-58.2803,Florencio Varela,23-1-6285,Autoservicio,AR-B,Av.San Martín 3188,Axion Energy,Florencio Varela,Pan American Energy LLC Argentina,23,6285
32.5108,32.51 kilómetros,1,-34.779216,-58.265288,5346 - FLORENCIO VARELA,15-1-5346,Autoservicio,AR-B,Camino General Belgrano Rp 14 6260,Supermercados DIA,BUENOS AIRES,DIA Argentina S.A,15,5346
32.7007,32.70 kilómetros,1,-34.7968506,-58.278562,5261 - FLORENCIO VARELA,15-1-5261,Autoservicio,AR-B,San Martin 2048,Supermercados DIA,BUENOS AIRES,DIA Argentina S.A,15,5261
32.958,32.96 kilómetros,1,-34.744106,-58.243536,5256 - QUILMES,15-1-5256,Autoservicio,AR-B,Av Centenario 4005,Supermercados DIA,BUENOS AIRES,DIA Argentina S.A,15,5256
33.0081,33.01 kilómetros,1,-34.77359,-58.26767,FLORENCIO VARELA,19-1-03150,Autoservicio,AR-B,Av.Calchaquí 5877 -Esquina Av. 0,FULL,FLORENCIO VARELA,Operadora de Estaciones de Servicios S.A.,19,03150
33.6151,33.62 kilómetros,1,-34.779585,-58.279265,Florencio Varela,10-1-49,Hipermercado,AR-B,Av. Gral. José De San Martín 554,Hipermercado Carrefour,Florencio Varela,INC S.A.,10,49
34.2119,34.21 kilómetros,1,-34.8068123,-58.301815,74 - FLORENCIO VARELA,15-1-74,Autoservicio,AR-B,Cl El Aljibe 700,Supermercados DIA,BUENOS AIRES,DIA Argentina S.A,15,74
34.495,34.50 kilómetros,1,-34.758543,-58.275706,EASY QUILMES,3001-1-107,Hipermercado,AR-B,Avenida Calchaqui 3950,EASY,Quilmes Oeste,EASY S.A.,3001,107
34.5646,34.56 kilómetros,1,-34.76030,-58.27790,JUMBO QUILMES,19-1-02915,Autoservicio,AR-B,Av.Cachaqui 3900 0,FULL,QUILMES,Operadora de Estaciones de Servicios S.A.,19,02915
34.5761,34.58 kilómetros,3,-34.7282,-58.2510,Jumbo Quilmes II,9-3-5034,Supermercado,AR-B,Av. Mitre E/ Juan De Solis Y Guido 0,Jumbo,QUILMES,Jumbo Retail Argentina S.A.,9,5034
34.8545,34.85 kilómetros,3,-34.7588,-58.2805,Jumbo Quilmes,9-3-5207,Hipermercado,AR-B,Ruta Nacional Calchaqui 3950,Jumbo,QUILMES OESTE,Jumbo Retail Argentina S.A.,9,5207
34.9764,34.98 kilómetros,1,-34.725,-58.2535,Mitre,23-1-6279,Autoservicio,AR-B,Av. Gral. Mitre 880,Axion Energy,Quilmes,Pan American Energy LLC Argentina,23,6279
35.4101,35.41 kilómetros,3,-34.720261,-58.254951,Mitre 573,10-3-454,Autoservicio,AR-B,Av. Mitre 573,Express,Quilmes,INC S.A.,10,454
35.4121,35.41 kilómetros,3,-34.729681,-58.263922,12 de Octubre 520,10-3-462,Autoservicio,AR-B,12 De Octubre 520,Express,Quilmes,INC S.A.,10,462
35.414,35.41 kilómetros,1,-34.7298118,-58.2640675,5132 - QUILMES,15-1-5132,Autoservicio,AR-B,Av 12 De Octubre 559,Supermercados DIA,BUENOS AIRES,DIA Argentina S.A,15,5132
35.5351,35.54 kilómetros,2,-34.722174,-58.258571,QUILMES,2003-2-7950,Tradicional,AR-B,Moreno 581,DIGGIT,MORENO,GMRA S.A.,2003,7950
35.5417,35.54 kilómetros,1,-34.792414,-58.310215,174 - SAN FRANCISCO SOLANO,15-1-174,Autoservicio,AR-B,Av 24 581,Supermercados DIA,BUENOS AIRES,DIA Argentina S.A,15,174
35.5639,35.56 kilómetros,1,-34.7239980,-58.2607189,Quilmes Peatonal,2002-1-148,Tradicional,AR-B,Rivadavia 199,Fravega,Quilmes,FRAVEGA S A C I E I,2002,148
35.5667,35.57 kilómetros,1,-34.769658,-58.297003,5297 - QUILMES,15-1-5297,Autoservicio,AR-B,Av 844 831,Supermercados DIA,BUENOS AIRES,DIA Argentina S.A,15,5297
35.5713,35.57 kilómetros,1,-34.7275,-58.2641,Quilmes,23-1-6283,Autoservicio,AR-B,Presidente Perón 250,Axion Energy,Quilmes,Pan American Energy LLC Argentina,23,6283
35.8315,35.83 kilómetros,1,-34.7212988,-58.2618609,5220 - QUILMES,15-1-5220,Autoservicio,AR-B,Hipolito Yrigoyen 451 None,Supermercados DIA,BUENOS AIRES,DIA Argentina S.A,15,5220
35.9605,35.96 kilómetros,1,-34.7768729,-58.306397,5208 - SAN FRANCISCO SOLANO,15-1-5208,Autoservicio,AR-B,Av 844 Nº 2083 2083,Supermercados DIA,BUENOS AIRES,DIA Argentina S.A,15,5208
35.9786,35.98 kilómetros,1,-34.7200918,-58.2627514,QUILMES ,12-1-65,Hipermercado,AR-B,Hipolito Yrigoyen 380,COTO CICSA,Quilmes,Coto Centro Integral de Comercialización S.A.,12,65
36.049,36.05 kilómetros,1,-34.735911,-58.277988,Quilmes,10-1-7,Hipermercado,AR-B,Av. La Plata 1400,Hipermercado Carrefour,Quilmes,INC S.A.,10,7
36.1605,36.16 kilómetros,1,-34.7793172,-58.3102963,59 - SAN FRANCISCO SOLANO,15-1-59,Autoservicio,AR-B,Cl Jose Andres Lopez 2346,Supermercados DIA,BUENOS AIRES,DIA Argentina S.A,15,59
36.1921,36.19 kilómetros,2,-34.779200,-58.310610,DIGGIT SOLANO,2003-2-7905,Tradicional,AR-B,Calle 8442376,DIGGIT,SAN FRANCISCO SOLANO,GMRA S.A.,2003,7905
36.2637,36.26 kilómetros,1,-34.780207,-58.312070,Solano [Av. 844 N° 2467],24-1-263,Supermercado,AR-B,Av. 844 (Jose Andres Lopez) 2467,SIMPLICITY,SAN FRANCISCO SOLANO,Farmacity S.A.,24,263
36.3423,36.34 kilómetros,1,-34.7823585,-58.314263,5434 - QUILMES,15-1-5434,Autoservicio,AR-B,Manuel Palanca 2569,Supermercados DIA,BUENOS AIRES,DIA Argentina S.A,15,5434
36.4175,36.42 kilómetros,1,-34.7437163,-58.2891868,QUILMES ,12-1-104,Supermercado,AR-B,12 De Octubre 3054,COTO CICSA,Quilmes,Coto Centro Integral de Comercialización S.A.,12,104
36.5086,36.51 kilómetros,1,-34.7826932,-58.3164603,SOLANO,2004-1-22,Hipermercado,AR-B,Manuel Palanca 2698,Coppel S.A.,Solano,COPPEL S.A.,2004,22
36.7946,36.79 kilómetros,1,-34.710692,-58.264991,5363 - QUILMES,15-1-5363,Autoservicio,AR-B,Av Las Heras 91,Supermercados DIA,BUENOS AIRES,DIA Argentina S.A,15,5363
37.0216,37.02 kilómetros,1,-34.7160304,-58.2733722,143 - BERNAL,15-1-143,Autoservicio,AR-B,Av Lamadrid Esq. Rawson None,Supermercados DIA,BUENOS AIRES,DIA Argentina S.A,15,143
37.1366,37.14 kilómetros,1,-34.7687089,-58.3157794,5131 - QUILMES,15-1-5131,Autoservicio,AR-B,San Martin 2180,Supermercados DIA,BUENOS AIRES,DIA Argentina S.A,15,5131
37.3254,37.33 kilómetros,1,-34.73597,-58.29489,CALCHAQUI,19-1-00825,Autoservicio,AR-B,Calchaqui 851 0,FULL,QUILMES,Operadora de Estaciones de Servicios S.A.,19,00825
37.3486,37.35 kilómetros,1,-35.169002,-58.231875,176 - CORONEL BRANDSEN,15-1-176,Autoservicio,AR-B,Cl Ituzaingo Y Paso None,Supermercados DIA,BUENOS AIRES,DIA Argentina S.A,15,176
37.3874,37.39 kilómetros,5,-34.733394,-58.293617,Quilmes,11-5-1018,Hipermercado,AR-B,Av Calchaqui 700,Walmart SuperCenter,BARRIO EL DORADO,Wal Mart Argentina S.R.L.,11,1018
37.3957,37.40 kilómetros,1,-34.71229,-58.27500,ACA BERNAL,19-1-03232,Autoservicio,AR-B,Av. Zapiola 26 0,FULL,BERNAL,Operadora de Estaciones de Servicios S.A.,19,03232
37.7273,37.73 kilómetros,2,-34.809112,-58.343910,Claypole,11-2-1110,Supermercado,AR-B,Avenida Lacaze 3963,Changomas,CLAYPOLE,Wal Mart Argentina S.R.L.,11,1110
37.8995,37.90 kilómetros,1,-34.710638185468454,-58.28042761617155,BERNAL 1,24-1-346,Autoservicio,AR-B,9 De Julio 52,SIMPLICITY,BERNAL,Farmacity S.A.,24,346
37.95,37.95 kilómetros,1,-34.7116294,-58.2820677,25 - BERNAL,15-1-25,Autoservicio,AR-B,Cl Belgrano 388,Supermercados DIA,BUENOS AIRES,DIA Argentina S.A,15,25
38.125,38.12 kilómetros,1,-34.719142,-58.2913273,BERNAL ,12-1-130,Supermercado,AR-B,Av. Dardo Rocha 251,COTO CICSA,Bernal,Coto Centro Integral de Comercialización S.A.,12,130
38.4154,38.42 kilómetros,1,-34.717682,-58.293961,5163 - QUILMES,15-1-5163,Autoservicio,AR-B,Dardo Rocha 433,Supermercados DIA,BUENOS AIRES,DIA Argentina S.A,15,5163
38.4686,38.47 kilómetros,1,-34.7529384,-58.3220309,QUILMES,2004-1-1,Hipermercado,AR-B,Rivadavia 91,Coppel S.A.,Quilmes,COPPEL S.A.,2004,1
38.9228,38.92 kilómetros,1,-34.715471,-58.298863,Bernal,10-1-227,Hipermercado,AR-B,Av. Dardo Rocha 849,Hipermercado Carrefour,Bernal,INC S.A.,10,227
39.14,39.14 kilómetros,1,-34.984291,-58.376123,96 - ALEJANDRO KORN,15-1-96,Autoservicio,AR-B,Cl Boulev De Mayo Y Av Mitre 4138,Supermercados DIA,BUENOS AIRES,DIA Argentina S.A,15,96
39.4629,39.46 kilómetros,1,-34.887216,-58.384251,220 - GLEW,15-1-220,Autoservicio,AR-B,Cl Patria Y Vias F.Gral Roca None,Supermercados DIA,BUENOS AIRES,DIA Argentina S.A,15,220
39.4656,39.47 kilómetros,1,-34.7039014,-58.2957429,5149 - QUILMES,15-1-5149,Autoservicio,AR-B,Av San Martin 1076,Supermercados DIA,BUENOS AIRES,DIA Argentina S.A,15,5149
39.5353,39.54 kilómetros,3,-34.889129,-58.385270,Sarmiento 72,10-3-457,Supermercado,AR-B,Sarmiento 72,Express,Glew,INC S.A.,10,457
39.5556,39.56 kilómetros,1,-34.7920076,-58.3575072,1021 - RAFAEL CALZADA,15-1-1021,Autoservicio,AR-B,Av San Martin 3429,Supermercados DIA,BUENOS AIRES,DIA Argentina S.A,15,1021
39.8722,39.87 kilómetros,1,-34.883091,-58.388230,Glew,10-1-56,Hipermercado,AR-B,Av. Hipólito Yrigoyen 20260,Hipermercado Carrefour,Glew,INC S.A.,10,56
39.9343,39.93 kilómetros,1,-34.8600505,-58.3849381,154 - LONGCHAMPS,15-1-154,Autoservicio,AR-B,Cl Ricardo J Davel 1275,Supermercados DIA,BUENOS AIRES,DIA Argentina S.A,15,154
40.0319,40.03 kilómetros,1,-34.7112428,-58.3100995,5188 - QUILMES,15-1-5188,Autoservicio,AR-B,Av Los Quilmes 159,Supermercados DIA,BUENOS AIRES,DIA Argentina S.A,15,5188
40.069,40.07 kilómetros,3,-34.859301,-58.386273,Bolívar 1343,10-3-450,Autoservicio,AR-B,Bolívar 1343,Express,Longchamps,INC S.A.,10,450
40.1981,40.20 kilómetros,3,-34.752493,-58.343235,Av. Perón 5492,10-3-464,Autoservicio,AR-B,Av. Eva Perón 5492,Express,Lomas de Zamora,INC S.A.,10,464
40.3606,40.36 kilómetros,3,-34.697530,-58.302113,Los Tilos 711,10-3-443,Autoservicio,AR-B,Los Tilos 711,Express,Don Bosco,INC S.A.,10,443
40.3631,40.36 kilómetros,1,-34.85823,-58.389308,279 - LONGCHAMPS,15-1-279,Autoservicio,AR-B,Cl Rivadavia 1495,Supermercados DIA,BUENOS AIRES,DIA Argentina S.A,15,279
40.3842,40.38 kilómetros,1,-34.7693312,-58.3556143,67 - ALMIRANTE BROWN,15-1-67,Autoservicio,AR-B,Cl Salta 957,Supermercados DIA,BUENOS AIRES,DIA Argentina S.A,15,67
40.6702,40.67 kilómetros,1,-34.8276381,-58.38449,141 - CLAYPOLE,15-1-141,Autoservicio,AR-B,Cl Alcorta 1235,Supermercados DIA,BUENOS AIRES,DIA Argentina S.A,15,141
40.9986,41.00 kilómetros,3,-34.704182,-58.316933,Av. Mitre 6328,10-3-465,Supermercado,AR-B,Av. Mitre 6328,Express,Wilde,INC S.A.,10,465
41.1563,41.16 kilómetros,3,-34.828180,-58.390159,Carlos Pellegrini 844,10-3-448,Autoservicio,AR-B,Carlos Pellegrini 844,Express,Burzaco,INC S.A.,10,448
41.2134,41.21 kilómetros,1,-34.7612632,-58.3610162,San Jose - Temperley,2002-1-136,Tradicional,AR-B,Eva Peron 3045,Fravega,Temperley,FRAVEGA S A C I E I,2002,136
41.2717,41.27 kilómetros,1,-34.7616457,-58.3619447,1039 - LOMAS DE ZAMORA,15-1-1039,Autoservicio,AR-B,Av Eva Peron 2948,Supermercados DIA,BUENOS AIRES,DIA Argentina S.A,15,1039
41.3173,41.32 kilómetros,1,-34.68492,-58.30323,AUTOPISTA NORTE,19-1-03299,Autoservicio,AR-B,Aut Bs As-La Plata K13.500 Des 0,FULL,AVELLANEDA,Operadora de Estaciones de Servicios S.A.,19,03299
41.3832,41.38 kilómetros,1,-34.763559,-58.364391,Temperley,10-1-40,Hipermercado,AR-B,Av. Eva Perón 2679,Hipermercado Carrefour,Temperley,INC S.A.,10,40
41.4134,41.41 kilómetros,1,-34.7608932,-58.363224,SAN JOSÉ,2004-1-18,Hipermercado,AR-B,Av. Eva Perón 2992,Coppel S.A.,Temperley,COPPEL S.A.,2004,18
41.4738,41.47 kilómetros,1,-34.68495,-58.30547,AUTOPISTA SUR,19-1-03298,Autoservicio,AR-B,Aut Bs As-La Plata K13.500 Asc 0,FULL,AVELLANEDA,Operadora de Estaciones de Servicios S.A.,19,03298
41.4766,41.48 kilómetros,2,-34.816631,-58.389896,Almirante Brown,11-2-1028,Hipermercado,AR-B,Av Espora 2074,Changomas,ALMIRANTE BROWN,Wal Mart Argentina S.R.L.,11,1028
41.5254,41.53 kilómetros,1,-34.826231,-58.393707,118 - BURZACO,15-1-118,Autoservicio,AR-B,Cl E.Burzaco 682,Supermercados DIA,BUENOS AIRES,DIA Argentina S.A,15,118
41.5307,41.53 kilómetros,1,-34.7911301,-58.380203,5447 - ALMIRANTE BROWN,15-1-5447,Autoservicio,AR-B,Mitre 2200,Supermercados DIA,BUENOS AIRES,DIA Argentina S.A,15,5447
41.5385,41.54 kilómetros,3,-34.722369,-58.339005,C. General Belgrano 4861,10-3-459,Autoservicio,AR-B,Camino Gral. Belgrano 4861,Express,Lanús,INC S.A.,10,459
41.6328,41.63 kilómetros,1,-34.80887,-58.388804,1002 - ADROGUE,15-1-1002,Autoservicio,AR-B,Cl Espora 1462,Supermercados DIA,BUENOS AIRES,DIA Argentina S.A,15,1002
41.8402,41.84 kilómetros,1,-34.7960196,-58.3859618,276 - JOSE MANUEL MARMOL,15-1-276,Autoservicio,AR-B,Cl Bynnon 1704,Supermercados DIA,BUENOS AIRES,DIA Argentina S.A,15,276
42.2307,42.23 kilómetros,3,-34.729203,-58.352892,Eva Perón 4461,10-3-446,Autoservicio,AR-B,Eva Perón 4461,Express,Monte Chingolo,INC S.A.,10,446
42.2759,42.28 kilómetros,1,-34.798507,-58.392057,Adrogue [Esteban Adrogué 1061],24-1-258,Supermercado,AR-B,Esteban Adrogué 1061,SIMPLICITY,ADROGUE,Farmacity S.A.,24,258
42.4561,42.46 kilómetros,1,-34.812068,-58.399417,Adrogué,10-1-23,Hipermercado,AR-B,Hipólito Yrigoyen 13500,Hipermercado Carrefour,Adrogué,INC S.A.,10,23
42.5212,42.52 kilómetros,2,-34.799052,-58.395114,Adrogué,10-2-388,Supermercado,AR-B,Seguí 849,Market,Adrogué,INC S.A.,10,388
42.5646,42.56 kilómetros,1,-34.7997695,-58.3959092,182 - ADROGUE,15-1-182,Autoservicio,AR-B,Cl Segui 750,Supermercados DIA,BUENOS AIRES,DIA Argentina S.A,15,182
42.6533,42.65 kilómetros,1,-34.7735937,-58.384968,1031 - LOMAS DE ZAMORA,15-1-1031,Autoservicio,AR-B,Av Eva Peron 950,Supermercados DIA,BUENOS AIRES,DIA Argentina S.A,15,1031
42.7545,42.75 kilómetros,1,-34.808942,-58.401672,BOULEVARD SHOPPING ADROGUÉ,2003-1-7140,Tradicional,AR-B,Avenida Hipolito Yrigoyen 13298,Samsung,ALMIRANTE BROWN,GMRA S.A.,2003,7140
42.7553,42.76 kilómetros,2,-34.718809,-58.351975,Lanus,11-2-1050,Hipermercado,AR-B,Boulevard De Los Italianos 321,Changomas,LANUS,Wal Mart Argentina S.R.L.,11,1050
42.8067,42.81 kilómetros,2,-34.756839,-58.377738,Lomas Cerrito,11-2-1076,Hipermercado,AR-B,Cerrito 1891,Changomas,TEMPERLEY,Wal Mart Argentina S.R.L.,11,1076
43.3951,43.40 kilómetros,1,-34.691239,-58.337871,1047 - AVELLANEDA,15-1-1047,Autoservicio,AR-B,Av Belgrano 4222,Supermercados DIA,BUENOS AIRES,DIA Argentina S.A,15,1047
43.3964,43.40 kilómetros,2,-34.7993,-58.4053,Adrogué.,9-2-37,Supermercado,AR-B,Amenedo 302,Disco,ALMIRANTE BROWN,Jumbo Retail Argentina S.A.,9,37
43.469,43.47 kilómetros,1,-34.7212849,-58.3629215,155 - LANUS,15-1-155,Autoservicio,AR-B,Cl Eva Peron 3349,Supermercados DIA,BUENOS AIRES,DIA Argentina S.A,15,155
43.5005,43.50 kilómetros,3,-34.720952,-58.363081,Eva Perón 3330,10-3-460,Autoservicio,AR-B,Eva Perón 3330,Express,Lanús,INC S.A.,10,460
43.5812,43.58 kilómetros,1,-34.80087,-58.40805,ADROGUE,19-1-02927,Autoservicio,AR-B,H.Yrigoyen Esq.Frias 0,FULL,ADROGUE,Operadora de Estaciones de Servicios S.A.,19,02927
43.7337,43.73 kilómetros,1,-34.678581,-58.330895,EASY AVELLANEDA,3001-1-112,Supermercado,AR-B,Autopista Dr Ricardo Balbin 9,EASY,Avellaneda,EASY S.A.,3001,112
43.8671,43.87 kilómetros,1,-34.677326,-58.331551,ARROYO SARANDI,3-1-1584,Autoservicio,AR-B,Tres Arroyos 3802,DEHEZA S.A.I.C.F. e I.,AVELLANEDA,Deheza S.A.I.C.F. e I.,3,1584
43.9327,43.93 kilómetros,1,-34.678302,-58.333387,PARQUE AVELLANEDA SHOPPING,2003-1-7160,Tradicional,AR-B,Acceso Sudeste None,Samsung,SARANDI,GMRA S.A.,2003,7160
43.978,43.98 kilómetros,1,-35.031739,-58.417053,1539 - SAN VICENTE,15-1-1539,Autoservicio,AR-B,Av Sarmiento Esq Amoretti None,Supermercados DIA,BUENOS AIRES,DIA Argentina S.A,15,1539
43.9835,43.98 kilómetros,1,-34.6773230,-58.3331640,Parque Comercial Avellaneda,2002-1-171,Tradicional,AR-B,Ruta Bs. As. La Plata Km. 9,Fravega,Sarandi,FRAVEGA S A C I E I,2002,171
43.9893,43.99 kilómetros,5,-34.678569,-58.334423,Avellaneda 2,11-5-1016,Hipermercado,AR-B,Autopista Bs As La Plata Km 9 0 None,Walmart SuperCenter,SARANDI,Wal Mart Argentina S.R.L.,11,1016
43.997,44.00 kilómetros,1,-35.0221052,-58.4204728,104 - SAN VICENTE,15-1-104,Autoservicio,AR-B,Cl 25 De Mayo 232 Entre Ohiggins Y Castelli None,Supermercados DIA,BUENOS AIRES,DIA Argentina S.A,15,104
44.1688,44.17 kilómetros,1,-34.7817272,-58.4067065,TEMPERLEY ,12-1-107,Hipermercado,AR-B,Hipolito Irigoyen 10699,COTO CICSA,Lomas De Zamora,Coto Centro Integral de Comercialización S.A.,12,107
44.3006,44.30 kilómetros,1,-34.6831706,-58.3429383,SARANDI ,12-1-64,Hipermercado,AR-B,Av. Mitre 3300,COTO CICSA,Sarandi,Coto Centro Integral de Comercialización S.A.,12,64
44.3033,44.30 kilómetros,2,-34.7638,-58.3995,Lomas de Zamora.,9-2-9,Supermercado,AR-B,Meeks 256,Disco,LOMAS DE ZAMORA,Jumbo Retail Argentina S.A.,9,9
44.3046,44.30 kilómetros,4,-35.023460,-58.423526,San Vicente,11-4-1084,Supermercado,AR-B,Avenida 25 De Mayo 37,Mi Changomas,SAN VICENTE,Wal Mart Argentina S.R.L.,11,1084
44.3669,44.37 kilómetros,3,-34.7932,-58.4140,Jumbo Lomas,9-3-5204,Hipermercado,AR-B,Frias Gral Eustaquio 3201,Jumbo,LLAVALLOL,Jumbo Retail Argentina S.A.,9,5204
44.4008,44.40 kilómetros,1,-34.682870,-58.344031,SARANDI,3-1-1401,Autoservicio,AR-B,Av. Mitre 3215,DEHEZA S.A.I.C.F. e I.,SARANDI,Deheza S.A.I.C.F. e I.,3,1401
44.5489,44.55 kilómetros,1,-34.743554,-58.391069,Banfield [Maipu 339/337],24-1-257,Supermercado,AR-B,Maipu 339,SIMPLICITY,BANFIELD,Farmacity S.A.,24,257
44.5652,44.57 kilómetros,2,-34.760902,-58.40109,LOMAS,2003-2-7970,Tradicional,AR-B,Italia 20,DIGGIT,LOMAS DE ZAMORA,GMRA S.A.,2003,7970
44.5762,44.58 kilómetros,1,-34.7146631,-58.3722024,127 - LANUS,15-1-127,Autoservicio,AR-B,Av Eva Peron 2567,Supermercados DIA,BUENOS AIRES,DIA Argentina S.A,15,127
44.5797,44.58 kilómetros,1,-34.8183783,-58.4257131,180 - LOMA VERDE,15-1-180,Autoservicio,AR-B,Cl Guatambu 204,Supermercados DIA,BUENOS AIRES,DIA Argentina S.A,15,180
44.6001,44.60 kilómetros,1,-34.791742,-58.416087,EASY LOMAS,3001-1-104,Hipermercado,AR-B,Antartida Argentina 799,EASY,LAVALLOL,EASY S.A.,3001,104
44.6311,44.63 kilómetros,1,-34.792866,-58.416911,JUMBO LOMAS DE ZAMORA,2003-1-7180,Tradicional,AR-B,Avenida Antartida Argentina 799,Samsung,LLAVALLOL,GMRA S.A.,2003,7180
44.6657,44.67 kilómetros,1,-34.7592744,-58.4014206,Lomas de Zamora [Mariano Boedo nº 3,24-1-230,Supermercado,AR-B,Mariano Boedo 340,SIMPLICITY,LOMAS DE ZAMORA,Farmacity S.A.,24,230
44.6863,44.69 kilómetros,1,-34.760569,-58.402358,LOMAS,2003-1-7790,Tradicional,AR-B,Laprida 386,Samsung,LOMAS DE ZAMORA,GMRA S.A.,2003,7790
44.8026,44.80 kilómetros,1,-34.7431662,-58.3939275,51 - LOMAS DE ZAMORA,15-1-51,Autoservicio,AR-B,Cl Maipu 148,Supermercados DIA,BUENOS AIRES,DIA Argentina S.A,15,51
44.8145,44.81 kilómetros,3,-34.815906,-58.427561,Guatambú 12,10-3-451,Autoservicio,AR-B,Guatambú 12,Express,Almirante Brown,INC S.A.,10,451
44.8208,44.82 kilómetros,1,-34.75554,-58.40125,ACA LOMAS DE ZAMORA,19-1-00403,Autoservicio,AR-B,H.Irigoyen 8590 0,FULL,LOMAS DE ZAMORA,Operadora de Estaciones de Servicios S.A.,19,00403
44.8349,44.83 kilómetros,1,-34.736425,-58.390188,REMEDIOS DE ESCALADA,3-1-631,Autoservicio,AR-B,Malabia 302,DEHEZA S.A.I.C.F. e I.,REMEDIOS DE ESCALADA,Deheza S.A.I.C.F. e I.,3,631
44.849,44.85 kilómetros,1,-34.7606316,-58.4043299,LOMAS DE ZAMORA,2004-1-27,Hipermercado,AR-B,Francisco Narciso De Laprida 382,Coppel S.A.,Lomas de Zamora,COPPEL S.A.,2004,27
44.8591,44.86 kilómetros,1,-34.754573,-58.401176,LOMAS DE ZAMORA,3-1-584,Autoservicio,AR-B,Hipolito Yrigoyen 8504,DEHEZA S.A.I.C.F. e I.,LOMAS DE ZAMORA,Deheza S.A.I.C.F. e I.,3,584
45.02,45.02 kilómetros,1,-34.7494248,-58.4002232, BANFIELD ,12-1-183,Supermercado,AR-B,Av. Hipolito Yrigoyen 8028,COTO CICSA,Banfield,Coto Centro Integral de Comercialización S.A.,12,183
45.0836,45.08 kilómetros,1,-34.768774,-58.411275,Lomas de Zamora,10-1-231,Hipermercado,AR-B,Oliden 450,Hipermercado Carrefour,Lomas de Zamora,INC S.A.,10,231
45.1737,45.17 kilómetros,1,-34.798211,-58.4252917,131 - LLAVALLOL,15-1-131,Autoservicio,AR-B,Av Antartida Argentina 1660,Supermercados DIA,BUENOS AIRES,DIA Argentina S.A,15,131
45.7595,45.76 kilómetros,1,-34.7334837,-58.3997083,5479 - LANUS,15-1-5479,Autoservicio,AR-B,Hipolito Yrigoyen 6735 None,Supermercados DIA,BUENOS AIRES,DIA Argentina S.A,15,5479
45.77,45.77 kilómetros,1,-34.7269341,-58.3956649,LANUS ,12-1-186,Hipermercado,AR-B,Av. Hipolito Yrigoyen 6174,COTO CICSA,Lanus,Coto Centro Integral de Comercialización S.A.,12,186
45.9933,45.99 kilómetros,1,-34.748145,-58.411227,Banfield,10-1-52,Hipermercado,AR-B,Las Heras 1163,Hipermercado Carrefour,Lomas de Zamora,INC S.A.,10,52
46.0101,46.01 kilómetros,1,-34.69990,-58.37954,FARMACIA RP VIAMONTE,1002-1-5,Tradicional,AR-C,Viamonte 891,FARMACIAS RP,CABA,WENT S.A.,1002,5
46.0354,46.04 kilómetros,1,-34.7256805,-58.3981378,82 - LANUS,15-1-82,Autoservicio,AR-B,Cl Coronel Beltran 239,Supermercados DIA,BUENOS AIRES,DIA Argentina S.A,15,82
46.1961,46.20 kilómetros,2,-34.7390,-58.4084,Banfield.,9-2-112,Supermercado,AR-B,Vieytes Juan Hipolito 1046,Disco,BANFIELD,Jumbo Retail Argentina S.A.,9,112
46.2415,46.24 kilómetros,1,-34.708848,-58.389172,Lanus [Av. 9 de Julio 1236],24-1-232,Supermercado,AR-B,Av. 9 De Julio 1236,SIMPLICITY,LANUS,Farmacity S.A.,24,232
46.2822,46.28 kilómetros,1,-34.708837,-58.389681,5313 - LANUS,15-1-5313,Autoservicio,AR-B,Anatole France 2042,Supermercados DIA,BUENOS AIRES,DIA Argentina S.A,15,5313
46.426,46.43 kilómetros,5,-34.677509,-58.366668,Avellaneda,11-5-2999,Hipermercado,AR-B,Av Guemes 861,Walmart SuperCenter,AVELLANEDA,Wal Mart Argentina S.R.L.,11,2999
46.4301,46.43 kilómetros,3,-34.706481,-58.389854,29 de septiembre 1880,10-3-466,Autoservicio,AR-B,29 De Septiembre 1880,Express,Lanús,INC S.A.,10,466
46.4411,46.44 kilómetros,1,-34.7064894,-58.3900009,122 - LANUS,15-1-122,Autoservicio,AR-B,Cl 29 De Septiembre 1866,Supermercados DIA,BUENOS AIRES,DIA Argentina S.A,15,122
46.5164,46.52 kilómetros,1,-34.751627,-58.419417,1010 - LOMAS DE ZAMORA,15-1-1010,Autoservicio,AR-B,Cl Santa Fe. 500,Supermercados DIA,BUENOS AIRES,DIA Argentina S.A,15,1010
46.5443,46.54 kilómetros,1,-34.676581,-58.367449,ALTO AVELLANEDA SHOPPING,2003-1-7490,Tradicional,AR-B,Avenida General Guemes 897,Samsung,AVELLANEDA,GMRA S.A.,2003,7490
46.5472,46.55 kilómetros,1,-34.707157,-58.391835,Lanus Oeste [Avenida Hipolito Yrigoyen,24-1-290,Supermercado,AR-B,Avenida Hipolito Yrigoyen 4535,SIMPLICITY,LANUS,Farmacity S.A.,24,290
46.6667,46.67 kilómetros,1,-34.673341,-58.366246,EASY AVELLANEDA 2,3001-1-141,Supermercado,AR-B,Avenida Gral Guemes Y Berisso 0,EASY,AVELLANEDA,EASY S.A.,3001,141
46.7433,46.74 kilómetros,1,-34.6744341,-58.3682471,AVELLANEDA,2004-1-11,Hipermercado,AR-B,Av. General Guemes 897,Coppel S.A.,Avellaneda,COPPEL S.A.,2004,11
46.7647,46.76 kilómetros,1,-34.6887773,-58.3806075,152 - LANUS,15-1-152,Autoservicio,AR-B,Cl Bustamante 678,Supermercados DIA,BUENOS AIRES,DIA Argentina S.A,15,152
46.8932,46.89 kilómetros,1,-34.664459,-58.361261,5309 - AVELLANEDA,15-1-5309,Autoservicio,AR-B,Av Mitre 1118,Supermercados DIA,BUENOS AIRES,DIA Argentina S.A,15,5309
46.9331,46.93 kilómetros,1,-34.6650066,-58.3623175,AVELLANEDA ,12-1-101,Supermercado,AR-B,Italia 62,COTO CICSA,Avellaneda,Coto Centro Integral de Comercialización S.A.,12,101
46.9413,46.94 kilómetros,1,-34.7031,-58.3939,Lanús.,9-1-20,Supermercado,AR-B,Avenida Yrigoyen Presidente Hipolito 4174,Vea,LANUS,Jumbo Retail Argentina S.A.,9,20
47.0041,47.00 kilómetros,1,-34.8121,-58.4511,Monte Grande,9-1-698,Hipermercado,AR-B,Boulevard Buenos Aires 1136,Vea,MONTE GRANDE,Jumbo Retail Argentina S.A.,9,698
47.0429,47.04 kilómetros,1,-34.69864,-58.39189,LANUS,19-1-00402,Autoservicio,AR-B,Av.Hipolito Irigoyen 3732 0,FULL,LANUS,Operadora de Estaciones de Servicios S.A.,19,00402
47.0549,47.05 kilómetros,1,-34.830925,-58.457272,1012 - MONTE GRANDE,15-1-1012,Autoservicio,AR-B,Cl Dreyer Y Alem 1600,Supermercados DIA,BUENOS AIRES,DIA Argentina S.A,15,1012
47.0763,47.08 kilómetros,1,-34.663712,-58.363085,Avellaneda [Av. Mitre 949],24-1-260,Supermercado,AR-B,Av. Mitre 949,SIMPLICITY,AVELLANEDA,Farmacity S.A.,24,260
47.1216,47.12 kilómetros,1,-34.8032345,-58.4494122,107 - LUIS GUILLON,15-1-107,Autoservicio,AR-B,Cl Varisco 1652,Supermercados DIA,BUENOS AIRES,DIA Argentina S.A,15,107
47.1533,47.15 kilómetros,1,-34.66564,-58.36592,AVELLANEDA,19-1-00363,Autoservicio,AR-B,Belgrano 790 0,FULL,AVELLANEDA,Operadora de Estaciones de Servicios S.A.,19,00363
47.186,47.19 kilómetros,1,-34.7073388,-58.4000642,150 - LANUS,15-1-150,Autoservicio,AR-B,Cl 25 De Mayo 571,Supermercados DIA,BUENOS AIRES,DIA Argentina S.A,15,150
47.319,47.32 kilómetros,1,-34.661258,-58.364139,1534 - AVELLANEDA,15-1-1534,Autoservicio,AR-B,Cl 25 De Mayo 119 None,Supermercados DIA,BUENOS AIRES,DIA Argentina S.A,15,1534
47.4337,47.43 kilómetros,1,-34.6914,-58.3914,Lanus,9-1-692,Hipermercado,AR-B,Avenida Yrigoyen Presidente Hipolito 3043,Vea,LANUS,Jumbo Retail Argentina S.A.,9,692
47.4515,47.45 kilómetros,1,-34.814703,-58.456994,MONTE GRANDE ,12-1-105,Hipermercado,AR-B,Boulevar Bs. As. 710,COTO CICSA,Monte Grande,Coto Centro Integral de Comercialización S.A.,12,105
47.4737,47.47 kilómetros,3,-34.684697,-58.386613,Av. H.Yrigoyen 2323,10-3-455,Autoservicio,AR-B,Av. Hipólito Yrigoyen 2323,Express,Gerli,INC S.A.,10,455
47.601,47.60 kilómetros,2,-34.661465,-58.368212,Avellaneda II,10-2-101,Supermercado,AR-B,Av. Belgrano 422,Market,Avellaneda,INC S.A.,10,101
47.6069,47.61 kilómetros,3,-34.810018,-58.457241,Salta 160,10-3-461,Autoservicio,AR-B,Salta 160,Express,Lomas de Zamora,INC S.A.,10,461
48.0066,48.01 kilómetros,1,-34.66939,-58.38084,AVELLANEDA VIAS,19-1-03326,Autoservicio,AR-B,Av.Irigoyen Y Lola Mora 0,FULL,Avellaneda,Operadora de Estaciones de Servicios S.A.,19,03326
48.1013,48.10 kilómetros,1,-34.662114,-58.375652,5312 - AVELLANEDA,15-1-5312,Autoservicio,AR-B,Av H. Yrigoyen 402,Supermercados DIA,BUENOS AIRES,DIA Argentina S.A,15,5312
48.1823,48.18 kilómetros,1,-34.7329159,-58.4289309,1041 - LOMAS DE ZAMORA,15-1-1041,Autoservicio,AR-B,Av M. Rodriguez Y G. Mistral 950,Supermercados DIA,BUENOS AIRES,DIA Argentina S.A,15,1041
48.2365,48.24 kilómetros,1,-34.8198093,-58.4673986,62 - MONTE GRANDE,15-1-62,Autoservicio,AR-B,Cl Vicente Lopez 473,Supermercados DIA,BUENOS AIRES,DIA Argentina S.A,15,62
48.2571,48.26 kilómetros,1,-34.815175,-58.466232,5324 - MONTE GRANDE,15-1-5324,Autoservicio,AR-B,Hipolito Yrigoyen 164,Supermercados DIA,BUENOS AIRES,DIA Argentina S.A,15,5324
48.2841,48.28 kilómetros,1,-34.6859642,-58.3981991,5235 - LANUS,15-1-5235,Autoservicio,AR-B,Av R De Escalada De San Martin1334/40 None,Supermercados DIA,BUENOS AIRES,DIA Argentina S.A,15,5235
48.4431,48.44 kilómetros,1,-34.816015,-58.468587,Monte Grande [Leandro N. Alem 167/1,24-1-205,Supermercado,AR-B,Leandro N. Alem 167,SIMPLICITY,MONTE GRANDE,Farmacity S.A.,24,205
48.479,48.48 kilómetros,3,-34.735217,-58.433859,Martin Rodríguez 1399,10-3-453,Supermercado,AR-B,Martín Rodríguez 1399,Express,Banfield,INC S.A.,10,453
48.5183,48.52 kilómetros,1,-34.638422,-58.358543,729 - LA BOCA,15-1-729,Autoservicio,AR-C,Martín Rodriguez 1176 None,Supermercados DIA,CAPITAL FEDERAL,DIA Argentina S.A,15,729
48.6092,48.61 kilómetros,1,-34.651,-58.3723,Centenera,23-1-6233,Autoservicio,AR-C,Av. Cruz 1501,Axion Energy,Ciudad Autonoma de Buenos Aires,Pan American Energy LLC Argentina,23,6233
48.6171,48.62 kilómetros,1,-34.780839,-58.457944,Monte Grande,10-1-16,Hipermercado,AR-B,Camino De Cintura 2200,Hipermercado Carrefour,Monte Grande,INC S.A.,10,16
48.621,48.62 kilómetros,1,-34.6709522,-58.3904001,1505 - AVELLANEDA,15-1-1505,Autoservicio,AR-B,Av Galicia 759,Supermercados DIA,BUENOS AIRES,DIA Argentina S.A,15,1505
48.6244,48.62 kilómetros,1,-34.7073674,-58.4181855,26 - LANUS,15-1-26,Autoservicio,AR-B,Clsan Vladimiro 3165,Supermercados DIA,BUENOS AIRES,DIA Argentina S.A,15,26
48.7216,48.72 kilómetros,3,-34.636459,-58.359430,Olavarría 469,10-3-419,Autoservicio,AR-C,Olavarría 469,Express,Ciudad Autónoma de Buenos Aires,INC S.A.,10,419
48.7562,48.76 kilómetros,1,-34.63899,-58.362526,536 - LA BOCA,15-1-536,Autoservicio,AR-C,Gral.Gregorio Araoz De Lamadrid 728 (Boca) None,Supermercados DIA,CAPITAL FEDERAL,DIA Argentina S.A,15,536
48.7858,48.79 kilómetros,1,-34.6919464,-58.4092382,5480 - LANUS,15-1-5480,Autoservicio,AR-B,Canada 2111 None,Supermercados DIA,BUENOS AIRES,DIA Argentina S.A,15,5480
48.7909,48.79 kilómetros,3,-34.710793,-58.422569,San Martín 3960,10-3-456,Autoservicio,AR-B,Av. Gral. José De San Martín 3960,Express,Remedios de Escalada,INC S.A.,10,456
48.795,48.80 kilómetros,3,-34.690747,-58.408459,Cnel. D Elia 1649,10-3-447,Autoservicio,AR-B,Cnel. D Elia 1649,Express,Lanús,INC S.A.,10,447
48.8254,48.83 kilómetros,1,-34.6358731,-58.3603133,33 - LA BOCA,15-1-33,Autoservicio,AR-C,Cl Suarez 495,Supermercados DIA,CAPITAL FEDERAL,DIA Argentina S.A,15,33
49.0523,49.05 kilómetros,2,-34.645557,-58.373237,Salvadores [Av. Montes de Oca 1608/,24-2-184,Supermercado,AR-C,Av. Montes De Oca 1608,FARMACITY,Capital Federal,Farmacity S.A.,24,184
49.0524,49.05 kilómetros,1,-34.712895,-58.4272,5439 - LANUS,15-1-5439,Autoservicio,AR-B,Av General Jose De San Martin 4334,Supermercados DIA,BUENOS AIRES,DIA Argentina S.A,15,5439
49.0574,49.06 kilómetros,1,-34.6412489,-58.3690741,360 - LA BOCA,15-1-360,Autoservicio,AR-C,Av Reg.De Patricios 1214 (Barracas) None,Supermercados DIA,CAPITAL FEDERAL,DIA Argentina S.A,15,360
49.1397,49.14 kilómetros,1,-34.6320434,-58.3608448,361 - LA BOCA,15-1-361,Autoservicio,AR-C,Av Almirante Brown 803 (La Boca) None,Supermercados DIA,CAPITAL FEDERAL,DIA Argentina S.A,15,361
49.1431,49.14 kilómetros,1,-34.6474444,-58.3763218,520 - BARRACAS,15-1-520,Autoservicio,AR-C,California 1995 ( Barracas) None,Supermercados DIA,CAPITAL FEDERAL,DIA Argentina S.A,15,520
49.1652,49.17 kilómetros,2,-34.6318931,-58.3610549,LaBoca [Av. Almirante Brown 794/796,24-2-209,Supermercado,AR-C,Av. Almirante Brown 794,FARMACITY,Capital Federal,Farmacity S.A.,24,209
49.1746,49.17 kilómetros,3,-34.631998,-58.361300,Av. Alte. Brown 795,10-3-579,Autoservicio,AR-C,Av. Almirante Brown 795,Express,Ciudad Autónoma de Buenos Aires,INC S.A.,10,579
49.1817,49.18 kilómetros,1,-34.6440309,-58.373563,405 - BARRACAS,15-1-405,Autoservicio,AR-C,Avmontes De Oca 1438 (Barracas) None,Supermercados DIA,CAPITAL FEDERAL,DIA Argentina S.A,15,405
49.2418,49.24 kilómetros,1,-34.64908,-58.379245,745 - BARRACAS,15-1-745,Autoservicio,AR-C,Av. Gral.Iriarte 2295 None,Supermercados DIA,CAPITAL FEDERAL,DIA Argentina S.A,15,745
49.3763,49.38 kilómetros,1,-34.6373762,-58.3697099,209 - BARRACAS,15-1-209,Autoservicio,AR-C,Av Regimiento De Patricios 795,Supermercados DIA,CAPITAL FEDERAL,DIA Argentina S.A,15,209
49.4122,49.41 kilómetros,3,-34.627790,-58.360295,Caboto 420,10-3-697,Autoservicio,AR-C,Caboto 420,Express,Ciudad Autónoma de Buenos Aires,INC S.A.,10,697
49.4379,49.44 kilómetros,1,-34.6298527,-58.3628499,11 - LA BOCA,15-1-11,Autoservicio,AR-C,Cl 20 De Septiembre 341,Supermercados DIA,CAPITAL FEDERAL,DIA Argentina S.A,15,11
49.5262,49.53 kilómetros,1,-34.804783,-58.477246,1024 - MONTE GRANDE,15-1-1024,Autoservicio,AR-B,Cl Nuest. Malvinas Y D.Funes 1024,Supermercados DIA,BUENOS AIRES,DIA Argentina S.A,15,1024
49.5352,49.54 kilómetros,2,-34.642259,-58.376786,BLAISTEN - Barracas,3001-2-184,Autoservicio,AR-C,Herrera 1257,BLAISTEN,Capital Federal,EASY S.A.,3001,184
49.5614,49.56 kilómetros,3,-34.638410,-58.373366,Suárez 1599,10-3-346,Autoservicio,AR-C,Suárez 1599,Express,Ciudad Autónoma de Buenos Aires,INC S.A.,10,346
49.5685,49.57 kilómetros,2,-34.639341,-58.374389,Barracas,10-2-491,Supermercado,AR-C,Av. Montes De Oca 970,Market,Ciudad Autónoma de Buenos Aires,INC S.A.,10,491
49.6042,49.60 kilómetros,2,-34.634567,-58.370107,Patricios [Av. Patricios 501],24-2-217,Supermercado,AR-C,Av. Patricios 501,FARMACITY,Capital Federal,Farmacity S.A.,24,217
49.6323,49.63 kilómetros,1,-34.635218,-58.371168,657 - CAPITAL FEDERAL,15-1-657,Autoservicio,AR-C,Wenceslao Villafañe 1310,Supermercados DIA,CAPITAL FEDERAL,DIA Argentina S.A,15,657
49.6352,49.64 kilómetros,1,-34.6534717,-58.3887202,1086 - BARRACAS,15-1-1086,Autoservicio,AR-C,Av Velez Sarsfield 1572 (Barracas) None,Supermercados DIA,CAPITAL FEDERAL,DIA Argentina S.A,15,1086
49.6355,49.64 kilómetros,2,-34.63856,-58.37456,Suarez [Av. Montes de Oca 894],24-2-130,Supermercado,AR-C,Av. Montes De Oca 894,FARMACITY,Capital Federal,Farmacity S.A.,24,130
49.6626,49.66 kilómetros,3,-34.673516,-58.406289,J. D. Perón 2640,10-3-463,Autoservicio,AR-B,Pres. Tte. Gral. J. D. Perón 2640,Express,Valentín Alsina,INC S.A.,10,463
49.6802,49.68 kilómetros,3,-34.633500,-58.370104,Arzobispo Espinosa 1187,10-3-557,Autoservicio,AR-C,Arzobispo Espinosa 1187,Express,Ciudad Autónoma de Buenos Aires,INC S.A.,10,557
49.7617,49.76 kilómetros,1,-34.6904098,-58.4205743,LANUS ,12-1-75,Hipermercado,AR-B,Av. B. Rivadavia 2602,COTO CICSA,Lanus,Coto Centro Integral de Comercialización S.A.,12,75
49.7662,49.77 kilómetros,3,-34.628636,-58.366311,Almirante Brown 261,10-3-695,Autoservicio,AR-C,Almirante Brown 261,Express,Ciudad Autónoma de Buenos Aires,INC S.A.,10,695
49.8105,49.81 kilómetros,1,-34.639362,-58.377813,EASY BARRACAS,3001-1-137,Hipermercado,AR-C,Herrera 803,EASY,CAPITAL FEDERAL,EASY S.A.,3001,137
49.8683,49.87 kilómetros,1,-34.627803,-58.366911,708 - LA BOCA,15-1-708,Autoservicio,AR-C,Av. Almirante Brown 154 None,Supermercados DIA,CAPITAL FEDERAL,DIA Argentina S.A,15,708
49.8781,49.88 kilómetros,1,-34.6310944,-58.3704685,703 - LA BOCA,15-1-703,Autoservicio,AR-C,Regimiento Patricios 134,Supermercados DIA,CAPITAL FEDERAL,DIA Argentina S.A,15,703
49.962,49.96 kilómetros,1,-34.6382,-58.3788,Barracas,9-1-741,Supermercado,AR-C,Herrera 803,Vea,CIUDAD AUTONOMA BUENOS AIRES,Jumbo Retail Argentina S.A.,9,741
50.0576,50.06 kilómetros,1,-34.683634,-58.419328,5128 - LANUS,15-1-5128,Autoservicio,AR-B,Viamonte 2974,Supermercados DIA,BUENOS AIRES,DIA Argentina S.A,15,5128
50.1292,50.13 kilómetros,3,-34.6192,-58.3615,Jumbo Madero Harbour,9-3-5213,Hipermercado,AR-C,E.R. Dellpiane E/ Lanteri Y Peñaloz 0,Jumbo,CIUDAD AUTONOMA BUENOS AIRES,Jumbo Retail Argentina S.A.,9,5213
50.1854,50.19 kilómetros,3,-34.632222,-58.375998,Montes de Oca 304,10-3-323,Autoservicio,AR-C,Montes De Oca 304,Express,Ciudad Autónoma de Buenos Aires,INC S.A.,10,323
50.2002,50.20 kilómetros,1,-34.6320834,-58.3760678,BARRACAS,12-1-220,Hipermercado,AR-C,Gaspar M De Jovellanos 151,COTO CICSA,Caba,Coto Centro Integral de Comercialización S.A.,12,220
50.2343,50.23 kilómetros,1,-34.64512,-58.38923,ACA VELEZ SARSFIELD,19-1-00002,Autoservicio,AR-C,V.Sarsfield 850  Y Tool 0,FULL,CAPITAL,Operadora de Estaciones de Servicios S.A.,19,00002
50.2513,50.25 kilómetros,1,-34.6699182,-58.4111022,128 - LANUS,15-1-128,Autoservicio,AR-B,Cl Pte J. D. Peron 3241,Supermercados DIA,BUENOS AIRES,DIA Argentina S.A,15,128
50.3099,50.31 kilómetros,3,-34.707006,-58.438947,Murature 2169,10-3-422,Autoservicio,AR-B,Murature 2169,Express,Lomas de Zamora,INC S.A.,10,422
50.3645,50.36 kilómetros,1,-34.8338743,-58.4949847,78 - EL JAGUEL PDO ESTEB ECHE,15-1-78,Autoservicio,AR-B,Cl Evita 354,Supermercados DIA,BUENOS AIRES,DIA Argentina S.A,15,78
50.4316,50.43 kilómetros,3,-34.624098,-58.371153,Defensa 1400,10-3-570,Autoservicio,AR-C,Defensa 1400,Express,Ciudad Autónoma de Buenos Aires,INC S.A.,10,570
50.449,50.45 kilómetros,3,-34.621333,-58.368478,Paseo Colón 1179,10-3-627,Autoservicio,AR-C,Av. Paseo Colón 1179,Express,Ciudad Autónoma de Buenos Aires,INC S.A.,10,627
50.4567,50.46 kilómetros,1,-34.6251504,-58.3726168,293 - SAN TELMO,15-1-293,Autoservicio,AR-C,Cl Bolivar 1474,Supermercados DIA,CAPITAL FEDERAL,DIA Argentina S.A,15,293
50.4757,50.48 kilómetros,1,-34.7803362,-58.4791516,126 - 9 DE ABRIL,15-1-126,Autoservicio,AR-B,Cl Oliver 958,Supermercados DIA,BUENOS AIRES,DIA Argentina S.A,15,126
50.5004,50.50 kilómetros,1,-34.6255187,-58.3736292,SAN TELMO ,12-1-25,Supermercado,AR-C,Perú 1496,COTO CICSA,San Telmo,Coto Centro Integral de Comercialización S.A.,12,25
50.5285,50.53 kilómetros,1,-34.853823,-58.501066,EASY CANNING,3001-1-156,Hipermercado,AR-B,Avenida Pedro Dreyer 4670,EASY,BUENOS AIRES,EASY S.A.,3001,156
50.6018,50.60 kilómetros,2,-34.62177,-58.37116,"DEFENSA [Av. San Juan 387, 391, 395",24-2-145,Autoservicio,AR-C,"Av. San Juan 387, 391, 395",FARMACITY,Capital Federal,Farmacity S.A.,24,145
50.6407,50.64 kilómetros,1,-34.639891,-58.3899128,555 - BARRACAS,15-1-555,Autoservicio,AR-C,Av Velez Sarsfield 472(Barracas) None,Supermercados DIA,CAPITAL FEDERAL,DIA Argentina S.A,15,555
50.7138,50.71 kilómetros,1,-34.855455,-58.503413,LAS TOSCAS SHOPPING,2003-1-7520,Tradicional,AR-B,Formosa 653,Samsung,EZEIZA,GMRA S.A.,2003,7520
50.7785,50.78 kilómetros,1,-34.618135,-58.369851,GIUFRA,3-1-1068,Autoservicio,AR-C,Av. Paseo Colon 849,DEHEZA S.A.I.C.F. e I.,CAPITAL FEDERAL,Deheza S.A.I.C.F. e I.,3,1068
50.7923,50.79 kilómetros,1,-34.653559,-58.404483,697 - NUEVA POMPEYA,15-1-697,Autoservicio,AR-C,Rio Cuarto 3958,Supermercados DIA,CAPITAL FEDERAL,DIA Argentina S.A,15,697
50.8105,50.81 kilómetros,1,-34.6263387,-58.3789187,352 - CONSTITUCIÓN,15-1-352,Autoservicio,AR-C,Av Bernardo De Irigoyen 1518,Supermercados DIA,CAPITAL FEDERAL,DIA Argentina S.A,15,352
50.8443,50.84 kilómetros,2,-34.8546,-58.5047,Canning,9-2-740,Supermercado,AR-B,Av. Pedro Dreyer Y Ruta 52 0,Disco,CANNING,Jumbo Retail Argentina S.A.,9,740
50.9142,50.91 kilómetros,2,-34.609945,-58.362851,Madero 2 [ Av Juana Manso 1189],24-2-71,Autoservicio,AR-C,Av. Juana Manso 1189,FARMACITY,Capital Federal,Farmacity S.A.,24,71
50.9253,50.93 kilómetros,1,-34.6190759,-58.3729926,198 - SAN TELMO,15-1-198,Autoservicio,AR-C,Cl Bolivar 953,Supermercados DIA,CAPITAL FEDERAL,DIA Argentina S.A,15,198
50.9928,50.99 kilómetros,1,-34.628366,-58.38357,728 - CONSTITUCIÓN,15-1-728,Autoservicio,AR-C,Brasil 1260 None,Supermercados DIA,CAPITAL FEDERAL,DIA Argentina S.A,15,728
51.0081,51.01 kilómetros,1,-34.642918,-58.397827,748 - PARQUE PATRICIOS,15-1-748,Autoservicio,AR-C,Av Amancio Alcorta 2285 None,Supermercados DIA,CAPITAL FEDERAL,DIA Argentina S.A,15,748
51.0084,51.01 kilómetros,1,-34.630166,-58.3855908,363 - CONSTITUCIÓN,15-1-363,Autoservicio,AR-C,San Jose 1818 (Constitucion) None,Supermercados DIA,CAPITAL FEDERAL,DIA Argentina S.A,15,363
51.0137,51.01 kilómetros,1,-34.61647,-58.371491,591 - SAN TELMO,15-1-591,Autoservicio,AR-C,Cl Defensa 748 (San Telmo) None,Supermercados DIA,CAPITAL FEDERAL,DIA Argentina S.A,15,591
51.0238,51.02 kilómetros,2,-34.617218,-58.372441,San Telmo,10-2-385,Supermercado,AR-C,Av. Independencia 456,Market,Ciudad Autónoma de Buenos Aires,INC S.A.,10,385
51.0307,51.03 kilómetros,2,-34.626929,-58.382657,Constitucion [Lima 1615],24-2-296,Supermercado,AR-C,Lima 1615,FARMACITY,Capital Federal,Farmacity S.A.,24,296
51.0322,51.03 kilómetros,3,-34.627247,-58.383000,Salta 1637-39,10-3-406,Autoservicio,AR-C,Salta 1637,Express,Ciudad Autónoma de Buenos Aires,INC S.A.,10,406
51.035,51.04 kilómetros,1,-34.626433,-58.382215,CONSTITUCION ,12-1-19,Supermercado,AR-C,Lima 1553,COTO CICSA,Constitucion,Coto Centro Integral de Comercialización S.A.,12,19
51.0412,51.04 kilómetros,3,-34.618745,-58.374322,Perú 916,10-3-408,Autoservicio,AR-C,Perú 916,Express,Ciudad Autónoma de Buenos Aires,INC S.A.,10,408
51.0834,51.08 kilómetros,1,-34.612999,-58.368742,586 - MONSERRAT,15-1-586,Autoservicio,AR-C,Av Paseo Colon 464 (Monserrat) None,Supermercados DIA,CAPITAL FEDERAL,DIA Argentina S.A,15,586
51.1164,51.12 kilómetros,1,-34.6253767,-58.3823011,339 - CONSTITUCIÓN,15-1-339,Autoservicio,AR-C,Lima 1457,Supermercados DIA,CAPITAL FEDERAL,DIA Argentina S.A,15,339
51.1297,51.13 kilómetros,1,-34.6344047,-58.3914525,142 - PARQUE PATRICIOS,15-1-142,Autoservicio,AR-C,Av Caseros 2068,Supermercados DIA,CAPITAL FEDERAL,DIA Argentina S.A,15,142
51.2213,51.22 kilómetros,1,-34.626407,-58.384838,778 - CONSTITUCIÓN,15-1-778,Autoservicio,AR-C,Pavon 1324 None,Supermercados DIA,CAPITAL FEDERAL,DIA Argentina S.A,15,778
51.2578,51.26 kilómetros,1,-34.6317276,-58.39064151,565 - CONSTITUCIÓN,15-1-565,Autoservicio,AR-C,Av Entre Rios 2084 (Constitucion) None,Supermercados DIA,CAPITAL FEDERAL,DIA Argentina S.A,15,565
51.2822,51.28 kilómetros,1,-34.6299045,-58.3891921,409 - FLORES,15-1-409,Autoservicio,AR-C,Jose Bonifacio 1773 (Flores) None,Supermercados DIA,CAPITAL FEDERAL,DIA Argentina S.A,15,409
51.2924,51.29 kilómetros,3,-34.611868,-58.370576,Proxi Balcarce 379,10-3-752,Autoservicio,AR-C,Balcarce 379,Express,Ciudad Autónoma de Buenos Aires,INC S.A.,10,752
51.3034,51.30 kilómetros,1,-34.627,-58.3866,Garay,23-1-6237,Autoservicio,AR-C,Av. Garay 1302,Axion Energy,Ciudad Autonoma de Buenos Aires,Pan American Energy LLC Argentina,23,6237
51.3254,51.33 kilómetros,1,-34.8440028,-58.507952,EZEIZA ,12-1-189,Hipermercado,AR-B,Reconquista 1102,COTO CICSA,Ezeiza,Coto Centro Integral de Comercialización S.A.,12,189
51.3454,51.35 kilómetros,1,-34.628691,-58.38888,764 - CONSTITUCIÓN,15-1-764,Autoservicio,AR-C,Av. Brasil 1661 None,Supermercados DIA,CAPITAL FEDERAL,DIA Argentina S.A,15,764
51.3523,51.35 kilómetros,3,-34.616166,-58.376096,Chile 701,10-3-676,Autoservicio,AR-C,Chile 701,Express,Ciudad Autónoma de Buenos Aires,INC S.A.,10,676
51.3533,51.35 kilómetros,1,-34.643917,-58.403469,5271 - PARQUE PATRICIOS,15-1-5271,Autoservicio,AR-C,Jose C Paz 2965,Supermercados DIA,CAPITAL FEDERAL,DIA Argentina S.A,15,5271
51.3639,51.36 kilómetros,1,-34.6159499,-58.3760331,512 - MONSERRAT,15-1-512,Autoservicio,AR-C,Chacabuco 685 (Monserrat) None,Supermercados DIA,CAPITAL FEDERAL,DIA Argentina S.A,15,512
51.3773,51.38 kilómetros,1,-34.6175785,-58.3779568,463 - CONSTITUCIÓN,15-1-463,Autoservicio,AR-C,Av Independencia 838/840 (Constitucion) None,Supermercados DIA,CAPITAL FEDERAL,DIA Argentina S.A,15,463
51.3928,51.39 kilómetros,1,-34.6554344,-58.4141552,1520 - NUEVA POMPEYA,15-1-1520,Autoservicio,AR-C,Av Amancio Alcorta 3889,Supermercados DIA,CAPITAL FEDERAL,DIA Argentina S.A,15,1520
51.4144,51.41 kilómetros,3,-34.635325,-58.396301,Av. Caseros 2423,10-3-489,Autoservicio,AR-C,Av. Caseros 2423,Express,Ciudad Autónoma de Buenos Aires,INC S.A.,10,489
51.436,51.44 kilómetros,3,-34.603441,-58.363274,Juana Manso 550,10-3-544,Autoservicio,AR-C,Juana Manso 550,Express,Ciudad Autónoma de Buenos Aires,INC S.A.,10,544
51.4405,51.44 kilómetros,1,-34.6136307,-58.3746625,421 - MONSERRAT,15-1-421,Autoservicio,AR-C,Peru 486 ( Monserrat) None,Supermercados DIA,CAPITAL FEDERAL,DIA Argentina S.A,15,421
51.4436,51.44 kilómetros,3,-34.613625,-58.374702,Perú 487,10-3-589,Autoservicio,AR-C,Perú 487,Express,Ciudad Autónoma de Buenos Aires,INC S.A.,10,589
51.4507,51.45 kilómetros,3,-34.617396,-58.378826,Proxi Independencia 907,10-3-744,Autoservicio,AR-C,Independencia 907,Express,Ciudad Autónoma de Buenos Aires,INC S.A.,10,744
51.4521,51.45 kilómetros,1,-34.6034242,-58.3634962,484 - PUERTO MADERO,15-1-484,Autoservicio,AR-C,Juana Manso 530 (Puerto Madero) None,Supermercados DIA,CAPITAL FEDERAL,DIA Argentina S.A,15,484
51.4655,51.47 kilómetros,1,-34.622075,-58.383908,532 - CONSTITUCIÓN,15-1-532,Autoservicio,AR-C,Av San Juan 1261(Constitucion) None,Supermercados DIA,CAPITAL FEDERAL,DIA Argentina S.A,15,532
51.4808,51.48 kilómetros,2,-34.612975,-58.374544,DIGGIT PERÚ,2003-2-7980,Tradicional,AR-C,Peru 450,DIGGIT,CABA,GMRA S.A.,2003,7980
51.4983,51.50 kilómetros,2,-34.60290,-58.36359,MADERO3 [Av. Juana Manso 475],24-2-161,Autoservicio,AR-C,Av. Juana Manso 475,FARMACITY,Capital Federal,Farmacity S.A.,24,161
51.5152,51.52 kilómetros,3,-34.619056,-58.381498,Lima 945,10-3-585,Autoservicio,AR-C,Lima 945,Express,Ciudad Autónoma de Buenos Aires,INC S.A.,10,585
51.5255,51.53 kilómetros,2,-34.612531,-58.374717,Peru [Peru 401],24-2-181,Supermercado,AR-C,Peru 401,FARMACITY,Capital Federal,Farmacity S.A.,24,181
51.5288,51.53 kilómetros,3,-34.611219,-58.373340,Bolívar 270,10-3-633,Autoservicio,AR-C,Bolívar 270,Express,Ciudad Autónoma de Buenos Aires,INC S.A.,10,633
51.5396,51.54 kilómetros,1,-34.656053,-58.416637,792 - NUEVA POMPEYA,15-1-792,Autoservicio,AR-C,Av. Saenz 1275 None,Supermercados DIA,CAPITAL FEDERAL,DIA Argentina S.A,15,792
51.5535,51.55 kilómetros,1,-34.618786,-58.381768,673 - CAPITAL FEDERAL,15-1-673,Autoservicio,AR-C,Lima 913,Supermercados DIA,CAPITAL FEDERAL,DIA Argentina S.A,15,673
51.5569,51.56 kilómetros,3,-34.622468,-58.385616,Av. San Juan 1374,10-3-486,Autoservicio,AR-C,Av. San Juan 1374,Express,Ciudad Autónoma de Buenos Aires,INC S.A.,10,486
51.5819,51.58 kilómetros,3,-34.720449,-58.462849,Claudio de Alas 2146,10-3-458,Autoservicio,AR-B,Claudio De Alas 2146,Express,Budge,INC S.A.,10,458
51.5854,51.59 kilómetros,1,-34.7204095,-58.4628685,210 - LOMAS DE ZAMORA,15-1-210,Autoservicio,AR-B,Cl Claudio De Alas 2150,Supermercados DIA,BUENOS AIRES,DIA Argentina S.A,15,210
51.597,51.60 kilómetros,1,-34.617902,-58.38147,LIMA,4-1-289,Autoservicio,AR-C,Lima 899,ESTACION LIMA S.A.,CAPITAL FEDERAL,Estación Lima S.A.,4,289
51.6681,51.67 kilómetros,1,-34.651921,-58.414822,612 - CAPITAL FEDERAL,15-1-612,Autoservicio,AR-C,Cl Traful 3838,Supermercados DIA,CAPITAL FEDERAL,DIA Argentina S.A,15,612
51.6715,51.67 kilómetros,1,-34.626499,-58.391304,614 - SAN CRISTÓBAL,15-1-614,Autoservicio,AR-C,Av Entre Rios 1525,Supermercados DIA,CAPITAL FEDERAL,DIA Argentina S.A,15,614
51.706,51.71 kilómetros,3,-34.652803,-58.416088,SAENZ 1050,10-3-774,Autoservicio,AR-C,Av. Saenz 1050,Express,Ciudad Autónoma de Buenos Aires,INC S.A.,10,774
51.7249,51.72 kilómetros,3,-34.612572,-58.377673,Piedras 383,10-3-291,Autoservicio,AR-C,Piedras 383,Express,Ciudad Autónoma de Buenos Aires,INC S.A.,10,291
51.7516,51.75 kilómetros,3,-34.599909,-58.363959,Juana Manso 199,10-3-668,Autoservicio,AR-C,Juana Manso 199,Express,Ciudad Autónoma de Buenos Aires,INC S.A.,10,668
51.7557,51.76 kilómetros,1,-34.655905,-58.419386,662 - CAPITAL FEDERAL,15-1-662,Autoservicio,AR-C,Av Intendente F. Rabanal 1482,Supermercados DIA,CAPITAL FEDERAL,DIA Argentina S.A,15,662
51.7612,51.76 kilómetros,3,-34.605370,-58.370312,Alem 198,10-3-723,Autoservicio,AR-C,Av. Leandro N. Alem 198,Express,Ciudad Autónoma de Buenos Aires,INC S.A.,10,723
51.7654,51.77 kilómetros,2,-34.652234,-58.416393,Saenz [Av. Saenz 1052/54],24-2-183,Supermercado,AR-C,Av. Saenz 1052,FARMACITY,Capital Federal,Farmacity S.A.,24,183
51.8003,51.80 kilómetros,1,-34.65172,-58.416419,CABA-POMPEYA-SAENZ-MU,2011-1-207,Autoservicio,AR-C,Avda Saenz 1087,Musimundo,CIUDAD AUTONOMA BUENOS AIRES,Electronica Megatone S.A,2011,207
51.8112,51.81 kilómetros,3,-34.636786,-58.403169,Caseros 2864,10-3-369,Autoservicio,AR-C,Av. Caseros 2864,Express,Ciudad Autónoma de Buenos Aires,INC S.A.,10,369
51.8321,51.83 kilómetros,2,-34.608646,-58.374985,Av. de Mayo [Av. de Mayo 602],24-2-52,Supermercado,AR-C,Av. De Mayo 602,FARMACITY,Capital Federal,Farmacity S.A.,24,52
51.8378,51.84 kilómetros,2,-34.617683,-58.384708,INDEPENDENCIA [Av. Independencia 1301],24-2-304,Supermercado,AR-C,Av. Independencia 1301,FARMACITY,Capital Federal,Farmacity S.A.,24,304
51.861,51.86 kilómetros,1,-34.6545836,-58.4196717,POMPEYA,2004-1-8,Hipermercado,AR-B,Intendente Francisco Rabanal 1321,Coppel S.A.,Pompeya,COPPEL S.A.,2004,8
51.8632,51.86 kilómetros,1,-34.7079051,-58.4586922,203 - LOMAS DE ZAMORA,15-1-203,Autoservicio,AR-B,Cl Cosquin 2724,Supermercados DIA,BUENOS AIRES,DIA Argentina S.A,15,203
51.8736,51.87 kilómetros,1,-34.6308932,-58.3984397,1072 - PARQUE PATRICIOS,15-1-1072,Autoservicio,AR-C,Av Brasil 2450,Supermercados DIA,CAPITAL FEDERAL,DIA Argentina S.A,15,1072
51.8895,51.89 kilómetros,1,-34.654144,-58.4196788,POMPEYA ,12-1-63,Hipermercado,AR-C,Av. Francisco Rabanal 1345,COTO CICSA,Pompeya,Coto Centro Integral de Comercialización S.A.,12,63
51.9,51.90 kilómetros,1,-34.6369605,-58.4045551,4 - PARQUE PATRICIOS,15-1-4,Autoservicio,AR-C,Cl Caseros 2938,Supermercados DIA,CAPITAL FEDERAL,DIA Argentina S.A,15,4
51.92,51.92 kilómetros,1,-34.6298211,-58.3980513,266 - PARQUE PATRICIOS,15-1-266,Autoservicio,AR-C,Cl Matheu 1756,Supermercados DIA,CAPITAL FEDERAL,DIA Argentina S.A,15,266
51.9215,51.92 kilómetros,1,-34.651709,-58.41803,336 - NUEVA POMPEYA,15-1-336,Autoservicio,AR-C,Esquiu 1001,Supermercados DIA,CAPITAL FEDERAL,DIA Argentina S.A,15,336
51.922,51.92 kilómetros,1,-34.612132,-58.380073,631 - CAPITAL FEDERAL,15-1-631,Autoservicio,AR-C,Cl Moreno 968,Supermercados DIA,CAPITAL FEDERAL,DIA Argentina S.A,15,631
51.9261,51.93 kilómetros,2,-34.60739,-58.37499,Florida3 [Florida 52],24-2-115,Supermercado,AR-C,Florida 52,FARMACITY,Capital Federal,Farmacity S.A.,24,115
51.9304,51.93 kilómetros,3,-34.604167,-58.371478,Sarmiento 345,10-3-558,Autoservicio,AR-C,Sarmiento 345,Express,Ciudad Autónoma de Buenos Aires,INC S.A.,10,558
51.9337,51.93 kilómetros,1,-34.6214599,-58.3899576,349 - CONSTITUCIÓN,15-1-349,Autoservicio,AR-C,Humberto Primero 1696,Supermercados DIA,CAPITAL FEDERAL,DIA Argentina S.A,15,349
51.9412,51.94 kilómetros,1,-34.6081269,-58.3760198,470 - MONSERRAT,15-1-470,Autoservicio,AR-C,Av Rivadavia 674 (San Nicolas) None,Supermercados DIA,CAPITAL FEDERAL,DIA Argentina S.A,15,470
51.9417,51.94 kilómetros,1,-34.6166572,-58.3851356,718 - MONSERRAT,15-1-718,Autoservicio,AR-C,Chile 1347 None,Supermercados DIA,CAPITAL FEDERAL,DIA Argentina S.A,15,718
51.9497,51.95 kilómetros,3,-34.622603,-58.391341,Entre Ríos 1192,10-3-593,Autoservicio,AR-C,Entre Ríos 1192,Express,Ciudad Autónoma de Buenos Aires,INC S.A.,10,593
51.9906,51.99 kilómetros,3,-34.648144,-58.415872,Av. Almafuerte 880,10-3-416,Autoservicio,AR-C,Av. Almafuerte 880,Express,Ciudad Autónoma de Buenos Aires,INC S.A.,10,416
52.0097,52.01 kilómetros,1,-34.646222,-58.414442,1543 - CAPITAL FEDERAL,15-1-1543,Autoservicio,AR-C,Av Almafuerte724/726/730 None,Supermercados DIA,CAPITAL FEDERAL,DIA Argentina S.A,15,1543
52.0098,52.01 kilómetros,1,-34.63696284364363,-58.40606713103478,Mercado Libre,2013-1-1,Web,AR-C,Mercado Libre Argentina None,Mercado Libre,CABA,First Label S.R.L. ,2013,1
52.0285,52.03 kilómetros,2,-34.613219,-58.382776,Monserrat,10-2-386,Supermercado,AR-C,Av. Belgrano 1160,Market,Ciudad Autónoma de Buenos Aires,INC S.A.,10,386
52.0332,52.03 kilómetros,3,-34.629844,-58.399654,Inclan 2502,10-3-594,Autoservicio,AR-C,Inclan 2502,Express,Ciudad Autónoma de Buenos Aires,INC S.A.,10,594
52.0537,52.05 kilómetros,2,-34.61319,-58.38311,BELGRANO [Av. Belgrano 1194 y 1200],24-2-143,Supermercado,AR-C,Av. Belgrano 1194,FARMACITY,Capital Federal,Farmacity S.A.,24,143
52.0597,52.06 kilómetros,1,-34.6228846,-58.3931835,271 - SAN CRISTÓBAL,15-1-271,Autoservicio,AR-C,Av San Juan 1932,Supermercados DIA,CAPITAL FEDERAL,DIA Argentina S.A,15,271
52.0736,52.07 kilómetros,3,-34.609305,-58.379243,Tacuarí 89,10-3-571,Autoservicio,AR-C,Tacuarí 89,Express,Ciudad Autónoma de Buenos Aires,INC S.A.,10,571
52.0759,52.08 kilómetros,1,-34.6116871,-58.381835,493 - MONSERRAT,15-1-493,Autoservicio,AR-C,Lima 277 (Monserrat) None,Supermercados DIA,CAPITAL FEDERAL,DIA Argentina S.A,15,493
52.1079,52.11 kilómetros,1,-34.628376,-58.399276,754 - SAN CRISTÓBAL,15-1-754,Autoservicio,AR-C,Avjuan De Garay 2435 None,Supermercados DIA,CAPITAL FEDERAL,DIA Argentina S.A,15,754
52.1141,52.11 kilómetros,3,-34.635113,-58.405779,La Rioja 2040,10-3-487,Autoservicio,AR-C,La Rioja 2040,Express,Ciudad Autónoma de Buenos Aires,INC S.A.,10,487
52.1176,52.12 kilómetros,3,-34.606155,-58.376453,Maipú 171,10-3-308,Autoservicio,AR-C,Maipú 171,Express,Ciudad Autónoma de Buenos Aires,INC S.A.,10,308
52.1267,52.13 kilómetros,3,-34.601987,-58.371949,Lavalle 368,10-3-631,Autoservicio,AR-C,Lavalle 368,Express,Ciudad Autónoma de Buenos Aires,INC S.A.,10,631
52.1381,52.14 kilómetros,2,-34.609617,-58.380522,Yrigoyen [Hipólito Yrigoyen 992/994,24-2-204,Supermercado,AR-C,Hipolito Yrigoyen 992,FARMACITY,Capital Federal,Farmacity S.A.,24,204
52.154,52.15 kilómetros,2,-34.60315,-58.37366,Reconquista [Corrientes 484],24-2-41,Supermercado,AR-C,Av Corrientes 484,FARMACITY,Capital Federal,Farmacity S.A.,24,41
52.1747,52.17 kilómetros,3,-34.620294,-58.392204,Carlos Calvo 1826,10-3-418,Autoservicio,AR-C,Carlos Calvo 1826,Express,Ciudad Autónoma de Buenos Aires,INC S.A.,10,418
52.1779,52.18 kilómetros,3,-34.599509,-58.369906,Viamonte 170,10-3-656,Autoservicio,AR-C,Viamonte 170,Express,Ciudad Autónoma de Buenos Aires,INC S.A.,10,656
52.2196,52.22 kilómetros,3,-34.615549,-58.387978,México 1530,10-3-684,Autoservicio,AR-C,México 1530,Express,Ciudad Autónoma de Buenos Aires,INC S.A.,10,684
52.2319,52.23 kilómetros,1,-34.6594782,-58.4286401,377 - VILLA SOLDATI,15-1-377,Autoservicio,AR-C,Av Intendente Francisco Rabanal 2261 (Villa Soldati) None,Supermercados DIA,CAPITAL FEDERAL,DIA Argentina S.A,15,377
52.2354,52.24 kilómetros,2,-34.608469,-58.380704,AvDeMayo2 [Av. de Mayo 1470/80],24-2-198,Supermercado,AR-C,Av. De Mayo 1470,FARMACITY,Capital Federal,Farmacity S.A.,24,198
52.2392,52.24 kilómetros,2,-34.608259,-58.380533,9 de Julio,10-2-148,Supermercado,AR-C,Av. Rivadavia 999,Market,Ciudad Autónoma de Buenos Aires,INC S.A.,10,148
52.2416,52.24 kilómetros,1,-34.6230367,-58.3959072,SAN JUAN ,12-1-124,Hipermercado,AR-C,Av. San Juan 2168,COTO CICSA,Capital Federal,Coto Centro Integral de Comercialización S.A.,12,124
52.2492,52.25 kilómetros,2,-34.609617,-58.382142,JUJIRIGOYEN [Avda. Pte Hipólito Yrigoyen Nº 1116],24-2-159,Supermercado,AR-Y,Avda. Pte Hipólito Yrigoyen Nº 1116,FARMACITY,SAN SALVADOR DE JUJUY,Farmacity S.A.,24,159
52.252,52.25 kilómetros,2,-34.59932,-58.3708,Alem [Alem 702],24-2-68,Supermercado,AR-C,Alem 702,FARMACITY,Capital Federal,Farmacity S.A.,24,68
52.2834,52.28 kilómetros,1,-34.6097868,-58.3828226,5485 - TIGRE,15-1-5485,Autoservicio,AR-B,Av Hipolito Yrigoyen 1065 None,Supermercados DIA,BUENOS AIRES,DIA Argentina S.A,15,5485
52.2945,52.29 kilómetros,1,-34.6008689,-58.3731891,465 - RETIRO,15-1-465,Autoservicio,AR-C,Cl Tucuman 439 None,Supermercados DIA,CAPITAL FEDERAL,DIA Argentina S.A,15,465
52.2989,52.30 kilómetros,1,-34.611889,-58.385285,713 - MONSERRAT,15-1-713,Autoservicio,AR-C,Moreno 1333 None,Supermercados DIA,CAPITAL FEDERAL,DIA Argentina S.A,15,713
52.3064,52.31 kilómetros,1,-34.628905,-58.402557,JUAN DE GARAY ,12-1-7,Supermercado,AR-C,Av. J. De Garay 2700,COTO CICSA,Parque Patricios,Coto Centro Integral de Comercialización S.A.,12,7
52.309,52.31 kilómetros,3,-34.599672,-58.372053,Viamonte 351,10-3-341,Supermercado,AR-C,Viamonte 351,Express,Ciudad Autónoma de Buenos Aires,INC S.A.,10,341
52.3094,52.31 kilómetros,1,-34.6326213,-58.4061362,1531 - PARQUE PATRICIOS,15-1-1531,Autoservicio,AR-C,La Rioja 1850 (Parque Patricios) None,Supermercados DIA,CAPITAL FEDERAL,DIA Argentina S.A,15,1531
52.3175,52.32 kilómetros,2,-34.60242,-58.37527,Florida [Florida 471],24-2-20,Supermercado,AR-C,Florida 471,FARMACITY,Capital Federal,Farmacity S.A.,24,20
52.3318,52.33 kilómetros,3,-34.618097,-58.392208,Independencia 1833,10-3-363,Autoservicio,AR-C,Av. Independencia 1833,Express,Ciudad Autónoma de Buenos Aires,INC S.A.,10,363
52.3382,52.34 kilómetros,3,-34.612239,-58.386223,Moreno 1401,10-3-634,Autoservicio,AR-C,Moreno 1401,Express,Ciudad Autónoma de Buenos Aires,INC S.A.,10,634
52.3453,52.35 kilómetros,1,-34.6047958,-58.3783133,454 - PARQUE CHACABUCO,15-1-454,Autoservicio,AR-C,Sarmiento 814 ( San Nicolas) None,Supermercados DIA,CAPITAL FEDERAL,DIA Argentina S.A,15,454
52.3512,52.35 kilómetros,1,-34.6173202,-58.3916913,3 - BALVANERA,15-1-3,Autoservicio,AR-C,Cl Entre Rios 735,Supermercados DIA,CAPITAL FEDERAL,DIA Argentina S.A,15,3
52.3603,52.36 kilómetros,3,-34.600814,-58.374107,San Martín 620,10-3-562,Autoservicio,AR-C,San Martín 620,Express,Ciudad Autónoma de Buenos Aires,INC S.A.,10,562
52.3741,52.37 kilómetros,3,-34.613680,-58.388254,Av. Belgrano 1562,10-3-488,Autoservicio,AR-C,Av. Belgrano 1562,Express,Ciudad Autónoma de Buenos Aires,INC S.A.,10,488
52.3804,52.38 kilómetros,1,-34.60213,-58.37588,FARMACIA LA BOTICA DE MARTIN,1002-1-3,Tradicional,AR-C,Lavalle 646,FARMACIAS RP,CABA,WENT S.A.,1002,3
52.3828,52.38 kilómetros,1,-34.8536840,-58.5215400,Ezeiza,2002-1-135,Tradicional,AR-B,Conquista Del Desierto 230,Fravega,Ezeiza,FRAVEGA S A C I E I,2002,135
52.4075,52.41 kilómetros,3,-34.609241,-58.384045,Av. de Mayo 1241,10-3-583,Autoservicio,AR-C,Av. De Mayo 1241,Express,Ciudad Autónoma de Buenos Aires,INC S.A.,10,583
52.4169,52.42 kilómetros,2,-34.616354,-58.391638,EntreRios [Av. Entre Ríos nº 668/67,24-2-211,Supermercado,AR-C,Entre Rios 668,FARMACITY,Capital Federal,Farmacity S.A.,24,211
52.4237,52.42 kilómetros,1,-34.8556539,-58.5223401,5478 - EZEIZA,15-1-5478,Autoservicio,AR-B,Arribeños 280 None,Supermercados DIA,BUENOS AIRES,DIA Argentina S.A,15,5478
52.4283,52.43 kilómetros,2,-34.60481,-58.37955,Diagonal [Diag Norte 910],24-2-25,Supermercado,AR-C,Diagonal Norte 910,FARMACITY,Capital Federal,Farmacity S.A.,24,25
52.4341,52.43 kilómetros,1,-34.6021724,-58.3767232,400 - SAN TELMO,15-1-400,Autoservicio,AR-C,Maipu 512(San Nicolas) None,Supermercados DIA,CAPITAL FEDERAL,DIA Argentina S.A,15,400
52.4498,52.45 kilómetros,3,-34.603219,-58.378116,Esmeralda 428,10-3-375,Autoservicio,AR-C,Esmeralda 428,Express,Ciudad Autónoma de Buenos Aires,INC S.A.,10,375
52.4526,52.45 kilómetros,1,-34.8564988,-58.5228057,5484 - EZEIZA,15-1-5484,Autoservicio,AR-B,Diego Laure 229 None,Supermercados DIA,BUENOS AIRES,DIA Argentina S.A,15,5484
52.4769,52.48 kilómetros,3,-34.630648,-58.406589,Av. Chiclana 3002,10-3-796,Autoservicio,AR-C,Av. Chiclana 3002,Express,Ciudad Autónoma de Buenos Aires,INC S.A.,10,796
52.4774,52.48 kilómetros,1,-34.8519579,-58.5222721,80 - EZEIZA,15-1-80,Autoservicio,AR-B,Cl French 202,Supermercados DIA,BUENOS AIRES,DIA Argentina S.A,15,80
52.4778,52.48 kilómetros,1,-34.645778,-58.420358,1542 - CAPITAL FEDERAL,15-1-1542,Autoservicio,AR-C,Av La Plata 2689,Supermercados DIA,CAPITAL FEDERAL,DIA Argentina S.A,15,1542
52.5195,52.52 kilómetros,1,-34.628733,-58.405357,663 - CAPITAL FEDERAL,15-1-663,Autoservicio,AR-C,Av Chiclana 3174,Supermercados DIA,CAPITAL FEDERAL,DIA Argentina S.A,15,663
52.522,52.52 kilómetros,3,-34.603636,-58.379641,Av. Corriente 919,10-3-761,Autoservicio,AR-C,Av. Corrientes 919,Express,Ciudad Autónoma de Buenos Aires,INC S.A.,10,761
52.5336,52.53 kilómetros,1,-34.633533,-58.410081,552 - PARQUE PATRICIOS,15-1-552,Autoservicio,AR-C,Av Chiclana 3230 (Parque Patricios) None,Supermercados DIA,CAPITAL FEDERAL,DIA Argentina S.A,15,552
52.5398,52.54 kilómetros,1,-34.621764,-58.39885,733 - SAN CRISTÓBAL,15-1-733,Autoservicio,AR-C,Humberto Primo 2345 None,Supermercados DIA,CAPITAL FEDERAL,DIA Argentina S.A,15,733
52.5501,52.55 kilómetros,1,-34.599371,-58.375310,FLORIDA,2003-1-7570,Tradicional,AR-C,Florida 731,Samsung,CABA,GMRA S.A.,2003,7570
52.5565,52.56 kilómetros,3,-34.638635,-58.415077,Av. Caseros 3535,10-3-412,Autoservicio,AR-C,Av. Caseros 3535,Express,Ciudad Autónoma de Buenos Aires,INC S.A.,10,412
52.5579,52.56 kilómetros,1,-34.6519788,-58.4267385,5133 - NUEVA POMPEYA,15-1-5133,Autoservicio,AR-C,Corrales 1669,Supermercados DIA,CAPITAL FEDERAL,DIA Argentina S.A,15,5133
52.5618,52.56 kilómetros,1,-34.598729,-58.374759,GALERIAS PACIFICO,2003-1-7480,Tradicional,AR-C,Avenida Cordoba 550,Samsung,CABA,GMRA S.A.,2003,7480
52.5691,52.57 kilómetros,1,-34.609441,-58.386606,439 - MONSERRAT,15-1-439,Autoservicio,AR-C,Av De Mayo 1431 (Monserrat) None,Supermercados DIA,CAPITAL FEDERAL,DIA Argentina S.A,15,439
52.589,52.59 kilómetros,1,-34.60125,-58.37799,FARMACIA SCANAPIECCO,1002-1-4,Tradicional,AR-C,Esmeralda 599,FARMACIAS RP,CABA,WENT S.A.,1002,4
52.5921,52.59 kilómetros,1,-34.6236734,-58.4014697,5 - SAN CRISTÓBAL,15-1-5,Autoservicio,AR-C,Av San Juan 2641,Supermercados DIA,CAPITAL FEDERAL,DIA Argentina S.A,15,5
52.607,52.61 kilómetros,1,-34.6100864,-58.3878399,476 - MONSERRAT,15-1-476,Autoservicio,AR-C,Hipolito Yrigoyen 1512 (Monserrat) None,Supermercados DIA,CAPITAL FEDERAL,DIA Argentina S.A,15,476
52.6162,52.62 kilómetros,3,-34.599933,-58.376924,Viamonte 702,10-3-682,Autoservicio,AR-C,Viamonte 702,Express,Ciudad Autónoma de Buenos Aires,INC S.A.,10,682
52.6273,52.63 kilómetros,2,-34.60239,-58.37982,Centro [Lavalle 919],24-2-2,Supermercado,AR-C,Lavalle 919,FARMACITY,Capital Federal,Farmacity S.A.,24,2
52.6365,52.64 kilómetros,3,-34.601177,-58.378613,Tucumán 831,10-3-338,Autoservicio,AR-C,Tucumán 831,Express,Ciudad Autónoma de Buenos Aires,INC S.A.,10,338
52.6394,52.64 kilómetros,2,-34.62371,-58.40217,JUJUY2 [Av. San Juan 2701],24-2-133,Supermercado,AR-C,Av. San Juan 2701,FARMACITY,Capital Federal,Farmacity S.A.,24,133
52.6474,52.65 kilómetros,2,-34.6136,-58.3921,Entre Ríos y Belgrano.,9-2-630,Supermercado,AR-C,Avenida Entre Rios 361,Disco,CIUDAD AUTONOMA BUENOS AIRES,Jumbo Retail Argentina S.A.,9,630
52.6499,52.65 kilómetros,3,-34.597351,-58.374515,Paraguay 521,10-3-334,Autoservicio,AR-C,Paraguay 521,Express,Ciudad Autónoma de Buenos Aires,INC S.A.,10,334
52.6533,52.65 kilómetros,1,-34.68075,-58.45034,ACA AUTODROMO,19-1-00044,Autoservicio,AR-C,Roca 4550 0,FULL,CAPITAL FEDERAL,Operadora de Estaciones de Servicios S.A.,19,00044
52.6586,52.66 kilómetros,1,-34.61268,-58.391306,5353 - BALVANERA,15-1-5353,Autoservicio,AR-C,Moreno 1744,Supermercados DIA,CAPITAL FEDERAL,DIA Argentina S.A,15,5353
52.6613,52.66 kilómetros,1,-34.60276,-58.38073,FARMACIA LA BOTICA DE JULIAN,1002-1-2,Tradicional,AR-C,Av.Carlos Pellegrini 423,FARMACIAS RP,CABA,WENT S.A.,1002,2
52.6887,52.69 kilómetros,2,-34.598716,-58.376636,Maipu [Av. Cordoba 685],24-2-82,Supermercado,AR-C,Av. Cordoba 685,FARMACITY,Capital Federal,Farmacity S.A.,24,82
52.7011,52.70 kilómetros,1,-34.6372315,-58.4157757,403 - BOEDO,15-1-403,Autoservicio,AR-C,Avchiclana 3683 ( Boedo) None,Supermercados DIA,CAPITAL FEDERAL,DIA Argentina S.A,15,403
52.7359,52.74 kilómetros,2,-34.603902,-58.383077,Av. Corrientes,10-2-189,Supermercado,AR-C,Av. Corrientes 1160,Market,Ciudad Autónoma de Buenos Aires,INC S.A.,10,189
52.7447,52.74 kilómetros,1,-34.618411,-58.398396,1074 - SAN CRISTÓBAL,15-1-1074,Autoservicio,AR-C,Av Independencia2262/78 None,Supermercados DIA,CAPITAL FEDERAL,DIA Argentina S.A,15,1074
52.757,52.76 kilómetros,1,-34.6051859,-58.3847811,261 - SAN TELMO,15-1-261,Autoservicio,AR-C,Cl Sarmierto 1282,Supermercados DIA,CAPITAL FEDERAL,DIA Argentina S.A,15,261
52.7826,52.78 kilómetros,3,-34.612879,-58.393293,Moreno 1902,10-3-546,Autoservicio,AR-C,Moreno 1902,Express,Ciudad Autónoma de Buenos Aires,INC S.A.,10,546
52.7828,52.78 kilómetros,1,-34.60110,-58.38069,FARMACIA OSSEG,1002-1-6,Tradicional,AR-C,Av.Carlos Pellegrini 559,FARMACIAS RP,CABA,WENT S.A.,1002,6
52.7855,52.79 kilómetros,1,-34.6077047,-58.3879012,MITRE ,12-1-159,Supermercado,AR-C,Bartolomé Mitre 1558,COTO CICSA,Capital Federal,Coto Centro Integral de Comercialización S.A.,12,159
52.7968,52.80 kilómetros,2,-34.61139,-58.39195,Alsina [Entre Rios 196],24-2-19,Supermercado,AR-C,Entre Rios 196,FARMACITY,Capital Federal,Farmacity S.A.,24,19
52.8066,52.81 kilómetros,1,-34.5998484,-58.3796545,464 - MONSERRAT,15-1-464,Autoservicio,AR-C,Suipacha 715/719/723/729 ( San Nicolas) None,Supermercados DIA,CAPITAL FEDERAL,DIA Argentina S.A,15,464
52.8071,52.81 kilómetros,3,-34.598622,-58.378291,Esmeralda 823,10-3-302,Autoservicio,AR-C,Esmeralda 823,Express,Ciudad Autónoma de Buenos Aires,INC S.A.,10,302
52.8201,52.82 kilómetros,3,-34.597280,-58.376975,Maipú 918,10-3-541,Autoservicio,AR-C,Maipú 918,Express,Ciudad Autónoma de Buenos Aires,INC S.A.,10,541
52.8225,52.82 kilómetros,2,-34.60383,-58.38427,Tribunales [Corrientes 1236],24-2-35,Supermercado,AR-C,Av. Corrientes 1236,FARMACITY,Capital Federal,Farmacity S.A.,24,35
52.8427,52.84 kilómetros,3,-34.610358,-58.391532,Hipolito Irigoyen 1790,10-3-654,Autoservicio,AR-C,Hipólito Yrigoyen 1790,Express,Ciudad Autónoma de Buenos Aires,INC S.A.,10,654
52.8516,52.85 kilómetros,2,-34.64282,-58.42280,Chiclana [Av. La Plata 2401],24-2-117,Autoservicio,AR-C,Av. La Plata 2401,FARMACITY,Capital Federal,Farmacity S.A.,24,117
52.8547,52.85 kilómetros,1,-34.64267,-58.422711,AV. LA PLATA ,12-1-6,Supermercado,AR-C,Av. La Plata 2392,COTO CICSA,Pompeya,Coto Centro Integral de Comercialización S.A.,12,6
52.8718,52.87 kilómetros,1,-34.5976686,-58.3781834,415 - RETIRO,15-1-415,Autoservicio,AR-C,Paraguay 788 (Retiro) None,Supermercados DIA,CAPITAL FEDERAL,DIA Argentina S.A,15,415
52.8875,52.89 kilómetros,1,-34.6162451,-58.3982386,PICHINCHA ,12-1-78,Hipermercado,AR-C,México 2236,COTO CICSA,San Cristobal,Coto Centro Integral de Comercialización S.A.,12,78
52.8979,52.90 kilómetros,1,-34.642957,-58.423543,749 - NUEVA POMPEYA,15-1-749,Autoservicio,AR-C,Fernandez De La Cruz. F. Gral. Av. 865 None,Supermercados DIA,CAPITAL FEDERAL,DIA Argentina S.A,15,749
52.901,52.90 kilómetros,1,-34.6245,-58.4066,San Juan.,9-1-696,Hipermercado,AR-C,Avenida San Juan 2862,Vea,CIUDAD AUTONOMA BUENOS AIRES,Jumbo Retail Argentina S.A.,9,696
52.905,52.90 kilómetros,1,-34.6443523,-58.4248546,750 - NUEVA POMPEYA,15-1-750,Autoservicio,AR-C,Fernandez De La Cruz 1030,Supermercados DIA,CAPITAL FEDERAL,DIA Argentina S.A,15,750
52.9165,52.92 kilómetros,1,-34.6123916,-58.3947104,303 - BALVANERA,15-1-303,Autoservicio,AR-C,Cl Sarandi 260,Supermercados DIA,CAPITAL FEDERAL,DIA Argentina S.A,15,303
52.9377,52.94 kilómetros,2,-34.605335,-58.387581,Sarmiento [Sarmiento 1490],24-2-94,Supermercado,AR-C,Sarmiento 1490,FARMACITY,Capital Federal,Farmacity S.A.,24,94
52.9384,52.94 kilómetros,1,-34.60315,-58.385229,544 - BALVANERA,15-1-544,Autoservicio,AR-C,Talcahuano 475 (San Nicolas) None,Supermercados DIA,CAPITAL FEDERAL,DIA Argentina S.A,15,544
52.9418,52.94 kilómetros,3,-34.614164,-58.396894,Av. Belgrano 2160,10-3-729,Autoservicio,AR-C,Belgrano 2160,Express,Ciudad Autónoma de Buenos Aires,INC S.A.,10,729
52.9516,52.95 kilómetros,1,-34.6653764,-58.4427103,75 - VILLA SOLDATI,15-1-75,Autoservicio,AR-C,Cl Mariano Acosta 3552,Supermercados DIA,CAPITAL FEDERAL,DIA Argentina S.A,15,75
52.9639,52.96 kilómetros,1,-34.59883,-58.38085,FARMACIA WENT,1002-1-1,Tradicional,AR-C,Av.Corrientes 901,FARMACIAS RP,CABA,WENT S.A.,1002,1
52.9681,52.97 kilómetros,1,-34.647574,-58.42847,642 - CAPITAL FEDERAL,15-1-642,Autoservicio,AR-C,Av Fernandez De La Cruz 1499,Supermercados DIA,CAPITAL FEDERAL,DIA Argentina S.A,15,642
52.9731,52.97 kilómetros,1,-34.639505,-58.421513,618 - CAPITAL FEDERAL,15-1-618,Autoservicio,AR-C,Av Caseros 4039,Supermercados DIA,CAPITAL FEDERAL,DIA Argentina S.A,15,618
52.9845,52.98 kilómetros,2,-34.60894,-58.39209,Congreso [Av. Callao 23/25/27/29],24-2-61,Supermercado,AR-C,Callao 61,FARMACITY,Capital Federal,Farmacity S.A.,24,61
53.0025,53.00 kilómetros,3,-34.597675,-58.380133,Paraguay 919,10-3-213,Autoservicio,AR-C,Paraguay 919,Express,Ciudad Autónoma de Buenos Aires,INC S.A.,10,213
53.0108,53.01 kilómetros,3,-34.607887,-58.391361,B. Mitre 1751,10-3-560,Autoservicio,AR-C,Bartolomé Mitre 1751,Express,Ciudad Autónoma de Buenos Aires,INC S.A.,10,560
53.0264,53.03 kilómetros,3,-34.595929,-58.378526,Proxi Esmeralda 1040,10-3-751,Autoservicio,AR-C,Esmeralda 1040,Express,Ciudad Autónoma de Buenos Aires,INC S.A.,10,751
53.0384,53.04 kilómetros,3,-34.605506,-58.389230,Sarmiento 1592,10-3-357,Autoservicio,AR-C,Sarmiento 1592,Express,Ciudad Autónoma de Buenos Aires,INC S.A.,10,357
53.0443,53.04 kilómetros,2,-34.609263,-58.393293,Riobamba2 [Av. Rivadavia 1911/13/15,24-2-235,Supermercado,AR-C,Av. Rivadavia 1911,FARMACITY,Capital Federal,Farmacity S.A.,24,235
53.0619,53.06 kilómetros,1,-34.60759,-58.391787,755 - CAPITAL FEDERAL,15-1-755,Autoservicio,AR-C,Av. Callao 131 None,Supermercados DIA,CAPITAL FEDERAL,DIA Argentina S.A,15,755
53.0725,53.07 kilómetros,2,-34.618829,-58.403449,Jujuy [Av. Independencia 2676],24-2-89,Autoservicio,AR-C,Av. Independencia 2676,FARMACITY,Capital Federal,Farmacity S.A.,24,89
53.0919,53.09 kilómetros,3,-34.619005,-58.403897,Av. Independencia 2716,10-3-689,Autoservicio,AR-C,Av. Independencia 2716,Express,Ciudad Autónoma de Buenos Aires,INC S.A.,10,689
53.096,53.10 kilómetros,2,-34.59505,-58.37857,Esmeralda [Santa Fe  802],24-2-46,Supermercado,AR-C,Santa Fe 802,FARMACITY,Capital Federal,Farmacity S.A.,24,46
53.112,53.11 kilómetros,1,-34.6247055,-58.4097384,124 - BOEDO,15-1-124,Autoservicio,AR-C,Av San Juan 3153,Supermercados DIA,CAPITAL FEDERAL,DIA Argentina S.A,15,124
53.1975,53.20 kilómetros,1,-34.621097,-58.4074379,557 - CAPITAL FEDERAL,15-1-557,Autoservicio,AR-C,La Rioja 916 (San Cristobal) None,Supermercados DIA,CAPITAL FEDERAL,DIA Argentina S.A,15,557
53.2035,53.20 kilómetros,3,-34.5941,-58.3791,Jumbo Arenales,9-3-5276,Supermercado,AR-C,Arenales 870,Jumbo,CIUDAD AUTONOMA BUENOS AIRES,Jumbo Retail Argentina S.A.,9,5276
53.2067,53.21 kilómetros,1,-34.67669,-58.454442,793 - VILLA SOLDATI,15-1-793,Autoservicio,AR-C,Av Escalada 4344 None,Supermercados DIA,CAPITAL FEDERAL,DIA Argentina S.A,15,793
53.2117,53.21 kilómetros,3,-34.622701,-58.409197,Urquiza 1015,10-3-734,Autoservicio,AR-C,Urquiza 1015,Express,Ciudad Autónoma de Buenos Aires,INC S.A.,10,734
53.2137,53.21 kilómetros,1,-34.5951915,-58.3804858,497 - RETIRO,15-1-497,Autoservicio,AR-C,Av Santa Fe 927 (Retiro) None,Supermercados DIA,CAPITAL FEDERAL,DIA Argentina S.A,15,497
53.2274,53.23 kilómetros,1,-34.6094575,-58.3961317,481 - BALVANERA,15-1-481,Autoservicio,AR-C,Av Rivadavia 2089 (Balvanera) None,Supermercados DIA,CAPITAL FEDERAL,DIA Argentina S.A,15,481
53.2283,53.23 kilómetros,1,-34.693683,-58.466428,633 - CAPITAL FEDERAL,15-1-633,Autoservicio,AR-C,Clferre 6432,Supermercados DIA,CAPITAL FEDERAL,DIA Argentina S.A,15,633
53.2397,53.24 kilómetros,1,-34.6119916,-58.3989244,SPINETTO ,12-1-61,Hipermercado,AR-C,Alsina 2300,COTO CICSA,Once,Coto Centro Integral de Comercialización S.A.,12,61
53.2458,53.25 kilómetros,1,-34.606897,-58.3937157,477 - LA PATERNAL,15-1-477,Autoservicio,AR-C,Tte.Gral.Juan D.Peron 1901 (Balvanera) None,Supermercados DIA,CAPITAL FEDERAL,DIA Argentina S.A,15,477
53.2572,53.26 kilómetros,1,-34.630292,-58.4170172,742 - PARQUE CHACABUCO,15-1-742,Autoservicio,AR-C,Pavon 3743,Supermercados DIA,CAPITAL FEDERAL,DIA Argentina S.A,15,742
53.2617,53.26 kilómetros,3,-34.605721,-58.392703,Sarmiento 1810,10-3-598,Autoservicio,AR-C,Sarmiento 1810,Express,Ciudad Autónoma de Buenos Aires,INC S.A.,10,598
53.2794,53.28 kilómetros,3,-34.598783,-58.385461,Talcahuano 841,10-3-303,Autoservicio,AR-C,Talcahuano 841,Express,Ciudad Autónoma de Buenos Aires,INC S.A.,10,303
53.2806,53.28 kilómetros,1,-34.6377738,-58.4241346,370 - PARQUE CHACABUCO,15-1-370,Autoservicio,AR-C,Avla Plata 1976 (Boedo) None,Supermercados DIA,CAPITAL FEDERAL,DIA Argentina S.A,15,370
53.2866,53.29 kilómetros,1,-34.58709,-58.37225,RETIRO TERMINAL,19-1-03159,Autoservicio,AR-C,Av. Antartida Arg. Y Calle 10 0,FULL,CAP. FED.,Operadora de Estaciones de Servicios S.A.,19,03159
53.2868,53.29 kilómetros,3,-34.601674,-58.388729,Tucumán 1541,10-3-694,Autoservicio,AR-C,Tucumán 1541,Express,Ciudad Autónoma de Buenos Aires,INC S.A.,10,694
53.2934,53.29 kilómetros,3,-34.625078,-58.412616,Av. San Juan 3334,10-3-763,Autoservicio,AR-C,Av. San Juan 3334,Express,Ciudad Autónoma de Buenos Aires,INC S.A.,10,763
53.3026,53.30 kilómetros,1,-34.659133,-58.44238,720 - VILLA SOLDATI,15-1-720,Autoservicio,AR-C,Av. Fernández De La Cruz 2961 None,Supermercados DIA,CAPITAL FEDERAL,DIA Argentina S.A,15,720
53.3326,53.33 kilómetros,1,-34.598955,-58.386435,716 - RETIRO,15-1-716,Autoservicio,AR-C,Cordoba Av. 1365 None,Supermercados DIA,CAPITAL FEDERAL,DIA Argentina S.A,15,716
53.338,53.34 kilómetros,3,-34.594016,-58.381012,Arenales 975,10-3-299,Autoservicio,AR-C,Arenales 975,Express,Ciudad Autónoma de Buenos Aires,INC S.A.,10,299
53.3402,53.34 kilómetros,2,-34.60962,-58.39792,Uriburu [Rivadavia 2215],24-2-44,Supermercado,AR-C,Rivadavia 2215,FARMACITY,Capital Federal,Farmacity S.A.,24,44
53.3552,53.36 kilómetros,1,-34.6006324,-58.3886005,474 - MONSERRAT,15-1-474,Autoservicio,AR-C,Cl Viamonte 1535 ( San Nicolas) None,Supermercados DIA,CAPITAL FEDERAL,DIA Argentina S.A,15,474
53.356,53.36 kilómetros,2,-34.60445,-58.39272,Callao [Corrientes 1820],24-2-5,Supermercado,AR-C,Corrientes 1820,FARMACITY,Capital Federal,Farmacity S.A.,24,5
53.3669,53.37 kilómetros,1,-34.62228,-58.410955,766 - SAN CRISTÓBAL,15-1-766,Autoservicio,AR-C,24 De Noviembre 965 None,Supermercados DIA,CAPITAL FEDERAL,DIA Argentina S.A,15,766
53.3776,53.38 kilómetros,2,-34.609491,-58.398323,Uriburu,10-2-151,Supermercado,AR-C,Av. Rivadavia 2243,Market,Ciudad Autónoma de Buenos Aires,INC S.A.,10,151
53.3795,53.38 kilómetros,3,-34.596288,-58.384178,Libertad 1043,10-3-545,Autoservicio,AR-C,Libertad 1043,Express,Ciudad Autónoma de Buenos Aires,INC S.A.,10,545
53.3826,53.38 kilómetros,1,-34.604068,-58.3927,732 - BALVANERA,15-1-732,Autoservicio,AR-C,Av. Callao 416 None,Supermercados DIA,CAPITAL FEDERAL,DIA Argentina S.A,15,732
53.3856,53.39 kilómetros,3,-34.599262,-58.387552,Av. Córdoba 1439,10-3-199,Autoservicio,AR-C,Av. Córdoba 1439,Express,Ciudad Autónoma de Buenos Aires,INC S.A.,10,199
53.3891,53.39 kilómetros,1,-34.6071216,-58.3960221, PTE. PERON ,12-1-175,Supermercado,AR-C,Tte. Gral. Juan D. Perón 2070,COTO CICSA,Capital Federal,Coto Centro Integral de Comercialización S.A.,12,175
53.3903,53.39 kilómetros,1,-34.6006805,-58.3891667,VIAMONTE ,12-1-58,Hipermercado,AR-C,Viamonte 1571,COTO CICSA,Tribunales,Coto Centro Integral de Comercialización S.A.,12,58
53.3918,53.39 kilómetros,2,-34.5918,-58.3793,Esmeralda.,9-2-46,Supermercado,AR-C,Esmeralda 1365,Disco,CIUDAD AUTONOMA BUENOS AIRES,Jumbo Retail Argentina S.A.,9,46
53.3939,53.39 kilómetros,3,-34.603042,-58.391768,Lavalle 1749,10-3-329,Autoservicio,AR-C,Lavalle 1749,Express,Ciudad Autónoma de Buenos Aires,INC S.A.,10,329
53.3983,53.40 kilómetros,2,-34.5993,-58.38778,Uruguay [Cordoba 1467],24-2-43,Supermercado,AR-C,Av. Cordoba 1467,FARMACITY,Capital Federal,Farmacity S.A.,24,43
53.4067,53.41 kilómetros,3,-34.591563,-58.379252,Arroyo 859,10-3-318,Autoservicio,AR-C,Arroyo 859,Express,Ciudad Autónoma de Buenos Aires,INC S.A.,10,318
53.4293,53.43 kilómetros,1,-34.64101227,-58.42899124,572 - PARQUE CHACABUCO,15-1-572,Autoservicio,AR-C,Av Cobo 921 (Parque Chacabuco) None,Supermercados DIA,CAPITAL FEDERAL,DIA Argentina S.A,15,572
53.4745,53.47 kilómetros,1,-34.5850445,-58.372698,SADOS ,12-1-160,Hipermercado,AR-C,Av. Antartica Argentina 1160,COTO CICSA,Capital Federal,Coto Centro Integral de Comercialización S.A.,12,160
53.483,53.48 kilómetros,3,-34.604525,-58.394643,Av. Corrientes 1974,10-3-402,Autoservicio,AR-C,Av. Corrientes 1974,Express,Ciudad Autónoma de Buenos Aires,INC S.A.,10,402
53.4932,53.49 kilómetros,1,-34.6643978,-58.4489591,356 - VILLA SOLDATI,15-1-356,Autoservicio,AR-C,Av Francisco Fernandez De La Cruz 3596,Supermercados DIA,CAPITAL FEDERAL,DIA Argentina S.A,15,356
53.5057,53.51 kilómetros,1,-34.604513,-58.3949583,164 - BALVANERA,15-1-164,Autoservicio,AR-C,Av Corrientes 1978,Supermercados DIA,CAPITAL FEDERAL,DIA Argentina S.A,15,164
53.5111,53.51 kilómetros,1,-34.620248,-58.411001,24 DE NOVIEMBRE,3-1-1539,Autoservicio,AR-C,24 De Noviembre 791,DEHEZA S.A.I.C.F. e I.,CAPITAL FEDERAL,Deheza S.A.I.C.F. e I.,3,1539
53.5208,53.52 kilómetros,1,-34.61403,-58.404993,644 - CAPITAL FEDERAL,15-1-644,Autoservicio,AR-C,Av Pte.Juan Domingo Peròn 4279,Supermercados DIA,CAPITAL FEDERAL,DIA Argentina S.A,15,644
53.5387,53.54 kilómetros,1,-34.6845178,-58.4641447,LUGANO ,12-1-110,Hipermercado,AR-C,Soldado De La Frontera 5258,COTO CICSA,V Illa Lugano,Coto Centro Integral de Comercialización S.A.,12,110
53.5483,53.55 kilómetros,2,-34.59558,-58.38589,Talcahuano [Santa Fe 1310],24-2-47,Supermercado,AR-C,Av. Santa Fe 1310,FARMACITY,Capital Federal,Farmacity S.A.,24,47
53.5635,53.56 kilómetros,1,-34.5970782,-58.3877718,301 - RECOLETA,15-1-301,Autoservicio,AR-C,Cl Marcelo T De Alvear 1459,Supermercados DIA,CAPITAL FEDERAL,DIA Argentina S.A,15,301
53.5916,53.59 kilómetros,2,-34.62471,-58.4164,Boedo [Boedo 955],24-2-53,Supermercado,AR-C,Boedo 955,FARMACITY,Capital Federal,Farmacity S.A.,24,53
53.5916,53.59 kilómetros,2,-34.62471,-58.4164,Boedo [Boedo 955],24-2-53,Supermercado,AR-C,Boedo 955,FARMACITY,Capital Federal,Farmacity S.A.,24,53
53.6026,53.60 kilómetros,2,-34.5964,-58.3876,Talcahuano...,9-2-2,Supermercado,AR-C,Talcahuano 1055,Disco,CIUDAD AUTONOMA BUENOS AIRES,Jumbo Retail Argentina S.A.,9,2
53.6033,53.60 kilómetros,1,-34.593364,-58.384229,670 - CAPITAL FEDERAL,15-1-670,Autoservicio,AR-C,Libertad 1271,Supermercados DIA,CAPITAL FEDERAL,DIA Argentina S.A,15,670
53.6126,53.61 kilómetros,1,-34.620567,-58.412729,692 - ALMAGRO,15-1-692,Autoservicio,AR-C,Av Independencia 3311/3323 None,Supermercados DIA,CAPITAL FEDERAL,DIA Argentina S.A,15,692
53.6152,53.62 kilómetros,3,-34.595711,-58.387025,Av. Santa Fe 1377,10-3-760,Autoservicio,AR-C,Av. Santa Fe 1377,Express,Ciudad Autónoma de Buenos Aires,INC S.A.,10,760
53.6154,53.62 kilómetros,1,-34.615999,-58.408296,58 - BALVANERA,15-1-58,Autoservicio,AR-C,Cl La Rioja 465,Supermercados DIA,CAPITAL FEDERAL,DIA Argentina S.A,15,58
53.6284,53.63 kilómetros,3,-34.610019,-58.402456,Av. Rivadavia 2520,10-3-623,Autoservicio,AR-C,Av. Rivadavia 2520,Express,Ciudad Autónoma de Buenos Aires,INC S.A.,10,623
53.6289,53.63 kilómetros,1,-34.677093,-58.460086,EASY PARQUE BROWN 2,3001-1-147,Supermercado,AR-C,Avenida Gral Francisco Fernandez De La Cruz 4602,EASY,BUENOS AIRES,EASY S.A.,3001,147
53.6396,53.64 kilómetros,2,-34.59308,-58.38445,Libertad [Libertad 1279/81],24-2-62,Autoservicio,AR-C,Libertad 1279,FARMACITY,Capital Federal,Farmacity S.A.,24,62
53.6581,53.66 kilómetros,3,-34.596320,-58.388332,Paraná 1053,10-3-354,Autoservicio,AR-C,Paraná 1053,Express,Ciudad Autónoma de Buenos Aires,INC S.A.,10,354
53.6595,53.66 kilómetros,1,-34.6235872,-58.4162756,35 - BOEDO,15-1-35,Autoservicio,AR-C,Cl Boedo 875,Supermercados DIA,CAPITAL FEDERAL,DIA Argentina S.A,15,35
53.6628,53.66 kilómetros,3,-34.602748,-58.395363,Ayacucho 539,10-3-724,Autoservicio,AR-C,Ayacucho 539,Express,Ciudad Autónoma de Buenos Aires,INC S.A.,10,724
53.6834,53.68 kilómetros,1,-34.599351,-58.392017,704 - RECOLETA,15-1-704,Autoservicio,AR-C,Av. Córdoba 1733 None,Supermercados DIA,CAPITAL FEDERAL,DIA Argentina S.A,15,704
53.6861,53.69 kilómetros,1,-34.675855,-58.459925,PARQUE BROWN,2003-1-7190,Tradicional,AR-C,Avenida Francisco Fernandez De La Cruz 4602,Samsung,CABA,GMRA S.A.,2003,7190
53.7057,53.71 kilómetros,2,-34.632775,-58.425422,Vernet [Av. La Plata 1541/47/51/55],24-2-192,Supermercado,AR-C,Av. La Plata 1541/47/51/ 55,FARMACITY,Capital Federal,Farmacity S.A.,24,192
53.7207,53.72 kilómetros,1,-34.589266,-58.381335,CERRITO,3-1-1230,Autoservicio,AR-C,Av. Del Libertador 550,DEHEZA S.A.I.C.F. e I.,CAPITAL FEDERAL,Deheza S.A.I.C.F. e I.,3,1230
53.7375,53.74 kilómetros,3,-34.615032,-58.409057,Av. Belgrano 3043,10-3-662,Autoservicio,AR-C,Av. Belgrano 3043,Express,Ciudad Autónoma de Buenos Aires,INC S.A.,10,662
53.7398,53.74 kilómetros,2,-34.614959,-58.409017,La Rioja [Av. Belgrano 3049/53],24-2-186,Supermercado,AR-C,Av. Belgrano 3049,FARMACITY,Capital Federal,Farmacity S.A.,24,186
53.7652,53.77 kilómetros,2,-34.608486,-58.402839,Mitre[Bartolomé Mitre nº 2564/68/70,24-2-213,Supermercado,AR-C,Bartolome Mitre 2564,FARMACITY,Capital Federal,Farmacity S.A.,24,213
53.7665,53.77 kilómetros,3,-34.626152,-58.420171,Av. San Juan 3900,10-3-414,Autoservicio,AR-C,Av. San Juan 3900,Express,Ciudad Autónoma de Buenos Aires,INC S.A.,10,414
53.772,53.77 kilómetros,1,-34.6221132,-58.4164336,BOEDO ,12-1-43,Hipermercado,AR-C,Av. Boedo 777,COTO CICSA,Boedo,Coto Centro Integral de Comercialización S.A.,12,43
53.7789,53.78 kilómetros,2,-34.5964,-58.3902,Montevideo.,9-2-137,Supermercado,AR-C,Montevideo 1037,Disco,CIUDAD AUTONOMA BUENOS AIRES,Jumbo Retail Argentina S.A.,9,137
53.7935,53.79 kilómetros,2,-34.599628,-58.393925,Riobamba [Av Cordoba 1861],24-2-96,Supermercado,AR-C,Av. Cordoba 1861,FARMACITY,Capital Federal,Farmacity S.A.,24,96
53.8111,53.81 kilómetros,1,-34.6333148,-58.4273412,448 - BOEDO,15-1-448,Autoservicio,AR-C,Av La Plata 1570 (Boedo) None,Supermercados DIA,CAPITAL FEDERAL,DIA Argentina S.A,15,448
53.8209,53.82 kilómetros,1,-34.67501,-58.461028,CABA-LUGANO-PARQUE BROWN SH-MU,2011-1-157,Supermercado,AR-C,Avda Gral Francisco Fernandez 4602,Musimundo,CIUDAD AUTONOMA BUENOS AIRES,Electronica Megatone S.A,2011,157
53.8351,53.84 kilómetros,1,-34.607513,-58.4028388,392 - BALVANERA,15-1-392,Autoservicio,AR-C,Tte.Gral.Juan Domingo Peron (Balvanera) 2560,Supermercados DIA,CAPITAL FEDERAL,DIA Argentina S.A,15,392
53.8528,53.85 kilómetros,1,-34.6424371,-58.4358917,368 - PARQUE CHACABUCO,15-1-368,Autoservicio,AR-C,Av Cobo 1477 ( Parque Chacabuco) None,Supermercados DIA,CAPITAL FEDERAL,DIA Argentina S.A,15,368
53.8531,53.85 kilómetros,2,-34.604631,-58.400103,Corrientes y Pasteur [Av. Corrientes 2345/47],24-2-297,Supermercado,AR-C,Av. Corrientes 2345,FARMACITY,Capital Federal,Farmacity S.A.,24,297
53.8613,53.86 kilómetros,1,-34.6016761,-58.3971054,455 - FLORES,15-1-455,Autoservicio,AR-C,Junin 638 ( Balvanera) None,Supermercados DIA,CAPITAL FEDERAL,DIA Argentina S.A,15,455
53.8618,53.86 kilómetros,1,-34.5892217,-58.3834012,500 - RETIRO,15-1-500,Autoservicio,AR-C,Cl Libertad 1630 (Retiro) None,Supermercados DIA,CAPITAL FEDERAL,DIA Argentina S.A,15,500
53.8628,53.86 kilómetros,1,-34.612,-58.4078,Alsina,23-1-6227,Autoservicio,AR-C,Av. Jujuy 164,Axion Energy,Ciudad Autonoma de Buenos Aires,Pan American Energy LLC Argentina,23,6227
53.8762,53.88 kilómetros,1,-34.6375623,-58.4319886,693 - PARQUE CHACABUCO,15-1-693,Autoservicio,AR-C,Jose Maria Moreno 1654,Supermercados DIA,CAPITAL FEDERAL,DIA Argentina S.A,15,693
53.8957,53.90 kilómetros,3,-34.602117,-58.398071,Tucumán 2173,10-3-410,Autoservicio,AR-C,Tucumán 2173,Express,Ciudad Autónoma de Buenos Aires,INC S.A.,10,410
53.9177,53.92 kilómetros,1,-34.6101883,-58.406752,ONCE ,12-1-46,Supermercado,AR-C,Av. Rivadavia 2846,COTO CICSA,Once,Coto Centro Integral de Comercialización S.A.,12,46
53.9187,53.92 kilómetros,1,-34.589189,-58.384215,PATIO BULLRICH,2003-1-7220,Tradicional,AR-C,Posadas 1245,Samsung,CABA,GMRA S.A.,2003,7220
53.9369,53.94 kilómetros,3,-34.599869,-58.396275,Av. Córdoba 2038,10-3-577,Autoservicio,AR-C,Av. Córdoba 2038,Express,Ciudad Autónoma de Buenos Aires,INC S.A.,10,577
53.9499,53.95 kilómetros,1,-34.629614,-58.425882,592 - BOEDO,15-1-592,Autoservicio,AR-C,Av La Plata 1216 (Boedo) None,Supermercados DIA,CAPITAL FEDERAL,DIA Argentina S.A,15,592
53.9838,53.98 kilómetros,3,-34.6746,-58.4628,Jumbo Escalada,9-3-5201,Hipermercado,AR-C,Avenida Fernandez De La Cruz Gral Francisco 4602,Jumbo,CIUDAD AUTONOMA BUENOS AIRES,Jumbo Retail Argentina S.A.,9,5201
53.9885,53.99 kilómetros,2,-34.59575,-58.39257,Rodriguez Peña [Santa Fe 1740],24-2-28,Supermercado,AR-C,Av. Santa Fe 1740,FARMACITY,Capital Federal,Farmacity S.A.,24,28
53.9988,54.00 kilómetros,3,-34.788541,-58.522473,J. Hernandez 130,10-3-496,Autoservicio,AR-B,José Hernández 130,Express,Ezeiza,INC S.A.,10,496
54.0014,54.00 kilómetros,3,-34.621351,-58.418891,INDEPENDENCIA 3802,10-3-792,Autoservicio,AR-C,Independencia 3802,Express,Ciudad Autónoma de Buenos Aires,INC S.A.,10,792
54.0015,54.00 kilómetros,3,-34.595055,-58.392000,Rodríguez Peña 1185,10-3-352,Autoservicio,AR-C,Rodríguez Peña 1185,Express,Ciudad Autónoma de Buenos Aires,INC S.A.,10,352
54.0348,54.03 kilómetros,1,-34.6810082,-58.4679551,1521 - VILLA LURO,15-1-1521,Autoservicio,AR-C,Avfernandez De La Cruz 5583,Supermercados DIA,CAPITAL FEDERAL,DIA Argentina S.A,15,1521
54.039,54.04 kilómetros,1,-34.5971041,-58.3947861,268 - RECOLETA,15-1-268,Autoservicio,AR-C,Cl Riobamba 1014,Supermercados DIA,CAPITAL FEDERAL,DIA Argentina S.A,15,268
54.0416,54.04 kilómetros,1,-34.620804,-58.418927,730 - ALMAGRO,15-1-730,Autoservicio,AR-C,Av Independencia 3765 None,Supermercados DIA,CAPITAL FEDERAL,DIA Argentina S.A,15,730
54.0513,54.05 kilómetros,1,-34.6266864,-58.4245818,254 - BOEDO,15-1-254,Autoservicio,AR-C,Av San Juan 4231,Supermercados DIA,CAPITAL FEDERAL,DIA Argentina S.A,15,254
54.0513,54.05 kilómetros,1,-34.595716,-58.393456,CALLAO Y SANTA FE,2003-1-7260,Tradicional,AR-C,Avenida Santa Fe 1801,Samsung,CABA,GMRA S.A.,2003,7260
54.0698,54.07 kilómetros,1,-34.642459,-58.438805,772 - PARQUE CHACABUCO,15-1-772,Autoservicio,AR-C,Av. Cobo 1667 None,Supermercados DIA,CAPITAL FEDERAL,DIA Argentina S.A,15,772
54.08,54.08 kilómetros,2,-34.591951,-58.389726,Vicente López 1676,10-2-118,Hipermercado,AR-C,Vicente López 1676,Market,Ciudad Autónoma de Buenos Aires,INC S.A.,10,118
54.0819,54.08 kilómetros,3,-34.601172,-58.399768,Viamonte 2296,10-3-529,Autoservicio,AR-C,Viamonte 2296,Express,Ciudad Autónoma de Buenos Aires,INC S.A.,10,529
54.1052,54.11 kilómetros,1,-34.6177626,-58.416892,485 - ALMAGRO,15-1-485,Autoservicio,AR-C,Av Boedo 431( Almagro) None,Supermercados DIA,CAPITAL FEDERAL,DIA Argentina S.A,15,485
54.1162,54.12 kilómetros,1,-34.610235,-58.409618,355 - BALVANERA,15-1-355,Autoservicio,AR-C,Av Rivadavia 3050,Supermercados DIA,CAPITAL FEDERAL,DIA Argentina S.A,15,355
54.1228,54.12 kilómetros,2,-34.59187,-58.39027,Vicente Lopez [Rodriguez Peña 1572],24-2-40,Supermercado,AR-C,Rodriguez Peña 1572,FARMACITY,Capital Federal,Farmacity S.A.,24,40
54.1288,54.13 kilómetros,3,-34.615542,-58.415062,Av. Belgrano 3447,10-3-421,Autoservicio,AR-C,Av. Belgrano 3447,Express,Ciudad Autónoma de Buenos Aires,INC S.A.,10,421
54.1456,54.15 kilómetros,1,-34.615778,-58.415528,MAZA,3-1-1482,Autoservicio,AR-C,Maza 391,DEHEZA S.A.I.C.F. e I.,CAPITAL FEDERAL,Deheza S.A.I.C.F. e I.,3,1482
54.1458,54.15 kilómetros,3,-34.594087,-58.393061,Callao 1289,10-3-356,Autoservicio,AR-C,Av. Callao 1289,Express,Ciudad Autónoma de Buenos Aires,INC S.A.,10,356
54.1483,54.15 kilómetros,2,-34.61055,-58.41039,URQUIZA [Av. Rivadavia 3102],24-2-162,Supermercado,AR-C,Av. Rivadavia 3102,FARMACITY,Capital Federal,Farmacity S.A.,24,162
54.1597,54.16 kilómetros,3,-34.626760,-58.426136,Av. San Juan 4351,10-3-415,Autoservicio,AR-C,Av. San Juan 4351,Express,Ciudad Autónoma de Buenos Aires,INC S.A.,10,415
54.1664,54.17 kilómetros,1,-34.593456,-58.392671,668 - CAPITAL FEDERAL,15-1-668,Autoservicio,AR-C,Av Callao 1337,Supermercados DIA,CAPITAL FEDERAL,DIA Argentina S.A,15,668
54.1697,54.17 kilómetros,1,-34.589813,-58.388666,658 - CAPITAL FEDERAL,15-1-658,Autoservicio,AR-C,Pres. Manuel Quintana 360,Supermercados DIA,CAPITAL FEDERAL,DIA Argentina S.A,15,658
54.1738,54.17 kilómetros,2,-34.5897,-58.3886,Quintana.,9-2-18,Supermercado,AR-C,Avenida Quintana Pres Manuel 366,Disco,CIUDAD AUTONOMA BUENOS AIRES,Jumbo Retail Argentina S.A.,9,18
54.1783,54.18 kilómetros,3,-34.612364,-58.412625,Hipólito Irigoyen 3254,10-3-538,Autoservicio,AR-C,Hipólito Yrigoyen 3254,Express,Ciudad Autónoma de Buenos Aires,INC S.A.,10,538
54.1784,54.18 kilómetros,2,-34.595813,-58.395425,Av. Santa Fe 1954,10-2-116,Supermercado,AR-C,Av. Santa Fe 1954,Market,Ciudad Autónoma de Buenos Aires,INC S.A.,10,116
54.1802,54.18 kilómetros,1,-34.6053,-58.4055,BAZAR AVENIDA SA - Balvanera,2008-1-624,Tradicional,AR-B,Av. Pueyrredon 421,MEGATONE,Barrio El Once,BAZAR AVENIDA S.A.,2008,624
54.1893,54.19 kilómetros,1,-34.6055240,-58.4058611,Web,2002-1-128,Tradicional,AR-C,Www.Fravega.Com 2813,Fravega,Ciudad Aut. Bs.As,FRAVEGA S A C I E I,2002,128
54.1914,54.19 kilómetros,1,-34.6113,-58.411751,782 - BALVANERA,15-1-782,Autoservicio,AR-C,24 De Noviembre 51/53 None,Supermercados DIA,CAPITAL FEDERAL,DIA Argentina S.A,15,782
54.1957,54.20 kilómetros,2,-34.5930,-58.3926,Rodríguez Peña.,9-2-25,Supermercado,AR-C,Rodriguez Peña Nicolas 1430,Disco,CIUDAD AUTONOMA BUENOS AIRES,Jumbo Retail Argentina S.A.,9,25
54.1958,54.20 kilómetros,1,-34.685028,-58.472714,688 - VILLA RIACHUELO,15-1-688,Autoservicio,AR-C,Fernandez De La Cruz 6154 None,Supermercados DIA,CAPITAL FEDERAL,DIA Argentina S.A,15,688
54.2374,54.24 kilómetros,1,-34.632718,-58.432586,647 - CAPITAL FEDERAL,15-1-647,Autoservicio,AR-C,Av Jose Maria Moreno 1216,Supermercados DIA,CAPITAL FEDERAL,DIA Argentina S.A,15,647
54.2453,54.25 kilómetros,1,-34.621669,-58.42257,638 - CAPITAL FEDERAL,15-1-638,Autoservicio,AR-C,Av Independencia 4030/32 None,Supermercados DIA,CAPITAL FEDERAL,DIA Argentina S.A,15,638
54.2538,54.25 kilómetros,2,-34.59081,-58.39103,Recoleta [Callao 1600],24-2-42,Supermercado,AR-C,Av. Callao 1600,FARMACITY,Capital Federal,Farmacity S.A.,24,42
54.2659,54.27 kilómetros,2,-34.60416,-58.40555,Once [Pueyrredón 539],24-2-17,Supermercado,AR-C,Pueyrredon 539,FARMACITY,Capital Federal,Farmacity S.A.,24,17
54.2701,54.27 kilómetros,1,-34.687601,-58.47536,LUGANO ,12-1-37,Supermercado,AR-C,Av. Piedrabuena 4902,COTO CICSA,Lugano,Coto Centro Integral de Comercialización S.A.,12,37
54.2806,54.28 kilómetros,1,-34.6036515,-58.405234,384 - BALVANERA,15-1-384,Autoservicio,AR-C,Av Pueyrredon 576 (Balvanera) None,Supermercados DIA,CAPITAL FEDERAL,DIA Argentina S.A,15,384
54.2876,54.29 kilómetros,2,-34.610492,-58.412303,Once,10-2-511,Supermercado,AR-C,Av. Rivadavia 3221,Market,Ciudad Autónoma de Buenos Aires,INC S.A.,10,511
54.2881,54.29 kilómetros,1,-34.614959,-58.416725,736 - ALMAGRO,15-1-736,Autoservicio,AR-C,Boedo 250 None,Supermercados DIA,CAPITAL FEDERAL,DIA Argentina S.A,15,736
54.2901,54.29 kilómetros,3,-34.604980,-58.406744,Boulogne Sur Mer 431,10-3-640,Autoservicio,AR-C,Boulogne Sur Mer 431,Express,Ciudad Autónoma de Buenos Aires,INC S.A.,10,640
54.2988,54.30 kilómetros,1,-34.5960054,-58.3973971,JUNIN ,12-1-163,Supermercado,AR-C,Junín 1073,COTO CICSA,Capital Federal,Coto Centro Integral de Comercialización S.A.,12,163
54.3056,54.31 kilómetros,1,-34.6273133,-58.4286401,394 - PARQUE CHACABUCO,15-1-394,Autoservicio,AR-C,Av Directorio 134 (Caballito) None,Supermercados DIA,CAPITAL FEDERAL,DIA Argentina S.A,15,394
54.307,54.31 kilómetros,1,-34.685415,-58.474362,685 - CAPITAL FEDERAL,15-1-685,Autoservicio,AR-C,Cl Cañada De Gomez 4830,Supermercados DIA,CAPITAL FEDERAL,DIA Argentina S.A,15,685
54.3401,54.34 kilómetros,3,-34.685119,-58.474576,Chilavert 6280,10-3-554,Autoservicio,AR-C,Chilavert 6280,Express,Ciudad Autónoma de Buenos Aires,INC S.A.,10,554
