distanciaNumero,distanciaDescripcion,banderaId,lat,lng,sucursalNombre,id,sucursalTipo,provincia,direccion,banderaDescripcion,localidad,comercioRazonSocial,comercioId,sucursalId
1.0797,1.08 kilómetros,1,-31.5355656,-68.5252472,San Juan,2005-1-55,Supermercado,AR-J,Tucuman Sur 124,Naldo,San Juan,Naldo Lombardi SA,2005,55
1.156,1.16 kilómetros,1,-31.5357,-68.5244,Vea 48.,9-1-417,Supermercado,AR-J,General Acha 130,Vea,SAN JUAN,Jumbo Retail Argentina S.A.,9,417
1.1715,1.17 kilómetros,1,-31.534016,-68.524744,San Juan,10-1-123,Supermercado,AR-J,Gral. Acha 32,Hipermercado Carrefour,San Juan,INC S.A.,10,123
1.2706,1.27 kilómetros,1,-31.53544,-68.523229,SJUA-SAN JUAN-TUC-MU,2011-1-59,Supermercado,AR-J,Tucuman Sur 101,Musimundo,SAN JUAN,Electronica Megatone S.A,2011,59
1.2869,1.29 kilómetros,1,-31.5345,-68.5233,BAZAR AVENIDA SA - San Juan,2008-1-652,Tradicional,AR-J,Tucuman Sur 33,MEGATONE,SAN JUAN,BAZAR AVENIDA S.A.,2008,652
1.5524,1.55 kilómetros,1,-31.5235,-68.5365,Vea 39.,9-1-408,Supermercado,AR-J,Salta Norte 1048,Vea,SAN JUAN,Jumbo Retail Argentina S.A.,9,408
1.6346,1.63 kilómetros,1,-31.5309,-68.5210,Vea 28.,9-1-194,Supermercado,AR-J,25 De Mayo Y Jujuy 0,Vea,SAN JUAN,Jumbo Retail Argentina S.A.,9,194
1.8309,1.83 kilómetros,1,-31.5389,-68.5556,Vea 44.,9-1-413,Supermercado,AR-J,Av. Ignacio De La Roza 1946,Vea,SAN JUAN,Jumbo Retail Argentina S.A.,9,413
1.8603,1.86 kilómetros,1,-31.521277,-68.541382,PASEO SAN JUAN,2003-1-7440,Tradicional,AR-J,Avenida Circunvalacion None,Samsung,SAN JUAN,GMRA S.A.,2003,7440
2.0851,2.09 kilómetros,1,-31.53605,-68.51450,SAN JUAN,19-1-02657,Autoservicio,AR-J,Av. Rawson 216 Sur 0,FULL,SAN JUAN,Operadora de Estaciones de Servicios S.A.,19,02657
2.0968,2.10 kilómetros,1,-31.5358,-68.5144,Vea 45.,9-1-414,Supermercado,AR-J,Avenida Albarracin De Sarmiento Norte Paula 420,Vea,SAN JUAN,Jumbo Retail Argentina S.A.,9,414
2.1158,2.12 kilómetros,1,-31.5358,-68.5142,Vea 46.,9-1-415,Supermercado,AR-J,Diagonal Sarmiento Y Rivadavia Caucete 0,Vea,SAN JUAN,Jumbo Retail Argentina S.A.,9,415
2.155,2.16 kilómetros,1,-31.518637,-68.541856,EASY SAN JUAN,3001-1-123,Supermercado,AR-J,Scalabrini Ortiz 1285,EASY,SAN JUAN - CAPITAL -,EASY S.A.,3001,123
2.1691,2.17 kilómetros,1,-31.54137,-68.51400,ACA SAN JUAN,19-1-02694,Autoservicio,AR-J,9 De Julio Este 902 0,FULL,SAN JUAN,Operadora de Estaciones de Servicios S.A.,19,02694
2.2749,2.27 kilómetros,1,-31.549948,-68.517347,SJUA-SAN JUAN-RIVAD PEAT-MU,2011-1-309,Supermercado,AR-J,General Acha 230,Musimundo,SAN JUAN,Electronica Megatone S.A,2011,309
2.4615,2.46 kilómetros,1,-31.5172,-68.5259,Vea 41.,9-1-410,Supermercado,AR-J,General Acha 1482,Vea,SAN JUAN,Jumbo Retail Argentina S.A.,9,410
3.0712,3.07 kilómetros,2,-31.511110,-68.546211,San Juan Chimbas,11-2-1092,Hipermercado,AR-J,Avenida N. Benavidez Esq. Colón 1050,Changomas,SAN JUAN,Wal Mart Argentina S.R.L.,11,1092
3.1086,3.11 kilómetros,1,-31.5278,-68.5671,Vea 27.,9-1-193,Supermercado,AR-J,Av. Del Libertador 2359,Vea,SAN JUAN,Jumbo Retail Argentina S.A.,9,193
3.261,3.26 kilómetros,1,-31.5667,-68.5323,Vea 51.,9-1-815,Supermercado,AR-J,Republica Del Libano 297,Vea,SAN JUAN,Jumbo Retail Argentina S.A.,9,815
3.4837,3.48 kilómetros,1,-31.539831,-68.572973,ESPACIO SAN JUAN,2003-1-7450,Tradicional,AR-J,Avenida José Ignacio De La Roza 806,Samsung,SAN JUAN,GMRA S.A.,2003,7450
3.534,3.53 kilómetros,5,-31.541112,-68.573364,San Juan,11-5-1006,Hipermercado,AR-J,Jose Ignacio De La Rosa Oeste 806,Walmart SuperCenter,BARRIO RIVADAVIA,Wal Mart Argentina S.R.L.,11,1006
4.2895,4.29 kilómetros,2,-31.575672,-68.543724,Rawson,11-2-1081,Hipermercado,AR-J,Av. Doctor Ortega Y Las Vicentinas None,Changomas,BARRIO RAWSON,Wal Mart Argentina S.R.L.,11,1081
4.9561,4.96 kilómetros,1,-31.5815010,-68.5455632,San Juan - Rawson,2002-1-167,Tradicional,AR-J,Bv. Sarmiento Oeste 861,Fravega,San Juan,FRAVEGA S A C I E I,2002,167
4.9579,4.96 kilómetros,1,-31.5818067,-68.5434192,Rawson,2005-1-70,Autoservicio,AR-J,Boulevard Sarmiento Oeste 651,Naldo,Barrio Rawson,Naldo Lombardi SA,2005,70
4.9591,4.96 kilómetros,1,-31.5292,-68.5877,San Juan,9-1-544,Supermercado,AR-J,Av. Libertador General San Martín 4795,Vea,SAN JUAN,Jumbo Retail Argentina S.A.,9,544
5.0751,5.08 kilómetros,1,-31.58317,-68.539919,SJUA-RAWSON-SARMIENTO-MU,2011-1-60,Supermercado,AR-J,Bv Sarmiento Oeste 367,Musimundo,RAWSON,Electronica Megatone S.A,2011,60
13.6769,13.68 kilómetros,1,-31.655753,-68.577373,SJUA-POCITO-C 11-MU,2011-1-213,Autoservicio,AR-J,Calle 11 - Ing.Zalazar 864 None,Musimundo,POCITO,Electronica Megatone S.A,2011,213
27.3822,27.38 kilómetros,1,-31.65356,-68.281732,SJUA-CAUCETE-SARMIENTO-MU,2011-1-202,Autoservicio,AR-J,Diag Sarmiento 1012,Musimundo,CAUCETE,Electronica Megatone S.A,2011,202
139.7679,139.77 kilómetros,1,-32.59127,-69.34853,ACA USPALLATA,19-1-02697,Autoservicio,AR-M,Ruta Nacional 7 Km 1146 (Asc) 0,FULL,USPALLATA,Operadora de Estaciones de Servicios S.A.,19,02697
145.2295,145.23 kilómetros,1,-30.240227,-68.746882,SJUA-JACHAL-ECHEGARAY-MU,2011-1-225,Autoservicio,AR-J,Echegaray 456,Musimundo,JACHAL,Electronica Megatone S.A,2011,225
147.034,147.03 kilómetros,1,-32.8411,-68.8213,Las Heras III,9-1-856,Supermercado,AR-M,Independencia E/Chac 0,Vea,LAS HERAS,Jumbo Retail Argentina S.A.,9,856
147.6609,147.66 kilómetros,1,-32.8448,-68.834039,MDZA-LAS HERAS-SM-MU,2011-1-168,Autoservicio,AR-M,Avda Gral Jose De San Martin 2228,Musimundo,LAS HERAS,Electronica Megatone S.A,2011,168
148.4868,148.49 kilómetros,1,-32.8512,-68.8412,Vea 11.,9-1-179,Supermercado,AR-M,San Miguel 1650,Vea,LAS HERAS,Jumbo Retail Argentina S.A.,9,179
148.7582,148.76 kilómetros,5,-32.850687,-68.858646,Las Heras,11-5-1005,Hipermercado,AR-M,Boulogne Sur Mer Y Regalado Olguin None,Walmart SuperCenter,MENDOZA CIUDAD,Wal Mart Argentina S.R.L.,11,1005
149.4154,149.42 kilómetros,1,-32.8628,-68.8222,Vea 24.,9-1-190,Supermercado,AR-M,Moyano Lisandro 302,Vea,LAS HERAS,Jumbo Retail Argentina S.A.,9,190
150.4752,150.48 kilómetros,1,-32.8707,-68.8337,Vea 12.,9-1-180,Supermercado,AR-M,Santiago Del Estero Provincia De 25,Vea,MENDOZA,Jumbo Retail Argentina S.A.,9,180
150.5961,150.60 kilómetros,2,-32.868658,-68.852646,Mendoza Sexta,10-2-288,Supermercado,AR-M,Jorge A. Calle 631,Market,Mendoza,INC S.A.,10,288
150.606,150.61 kilómetros,1,-32.8681,-68.8564,Sexta Sección,9-1-855,Supermercado,AR-M,Jorge A. Calle Esq. Neuquen 0,Vea,MENDOZA,Jumbo Retail Argentina S.A.,9,855
150.7483,150.75 kilómetros,1,-32.871591,-68.843574,MENDOZA ,12-1-209,Hipermercado,AR-M,Av. Peru 2760,COTO CICSA,Mendoza,Coto Centro Integral de Comercialización S.A.,12,209
151.6145,151.61 kilómetros,2,-32.877586,-68.855222,Mendoza Suipacha,10-2-287,Supermercado,AR-M,Suipacha 556,Market,Mendoza,INC S.A.,10,287
151.8548,151.85 kilómetros,1,-32.8821,-68.8415,Vea 34.,9-1-402,Supermercado,AR-M,Patricias Mendocinas 1730,Vea,MENDOZA,Jumbo Retail Argentina S.A.,9,402
151.9957,152.00 kilómetros,1,-32.8760,-68.8836,B° Dalvian,9-1-546,Supermercado,AR-M,Cerro Siete Colores 2496,Vea,MENDOZA,Jumbo Retail Argentina S.A.,9,546
152.1598,152.16 kilómetros,1,-32.88545,-68.838131,MDZA-MENDOZA-SM1549-MU,2011-1-64,Supermercado,AR-M,Avda Gral Jose De San Martin 1549,Musimundo,MENDOZA,Electronica Megatone S.A,2011,64
152.1825,152.18 kilómetros,1,-32.8852398,-68.8407103,Mendoza San Rafael,2002-1-132,Tradicional,AR-M,San Martin 32,Fravega,San Rafael,FRAVEGA S A C I E I,2002,132
152.2402,152.24 kilómetros,1,-32.8893,-68.8182,Vea 14.,9-1-181,Supermercado,AR-M,Godoy Cruz 1105,Vea,VILLA NUEVA DE GUAYMALLEN,Jumbo Retail Argentina S.A.,9,181
152.2478,152.25 kilómetros,2,-32.885582,-68.842280,Mendoza Las Heras,10-2-283,Supermercado,AR-M,Av. Las Heras 306,Market,Mendoza,INC S.A.,10,283
152.2585,152.26 kilómetros,1,-32.8884,-68.8252,Mayorista.,9-1-196,Supermercado,AR-M,Matienzo Benjamin 936,Vea,VILLA NUEVA DE GUAYMALLEN,Jumbo Retail Argentina S.A.,9,196
152.2964,152.30 kilómetros,1,-32.885049,-68.848197,Mendoza Azul Centro,10-1-29,Hipermercado,AR-M,Las Heras 798,Hipermercado Carrefour,Mendoza,INC S.A.,10,29
152.3208,152.32 kilómetros,1,-32.8942,-68.7890,Vea 3.,9-1-172,Supermercado,AR-M,Godoy Cruz Dr. Tomas 3825,Vea,VILLA NUEVA DE GUAYMALLEN,Jumbo Retail Argentina S.A.,9,172
152.4287,152.43 kilómetros,1,-32.88782,-68.83874,MDZA-MENDOZA-SM1335-MU,2011-1-92,Autoservicio,AR-M,Avda Gral Jose De San Martin 1335,Musimundo,MENDOZA,Electronica Megatone S.A,2011,92
152.5347,152.53 kilómetros,1,-32.8888,-68.8387,BAZAR AVENIDA SA - Mendoza,2008-1-636,Tradicional,AR-M,Av. San Martin 1273 0,MEGATONE,Mendoza,BAZAR AVENIDA S.A.,2008,636
152.5429,152.54 kilómetros,1,-32.8887928,-68.8392115,Mendoza,2005-1-79,Supermercado,AR-M,Av San Martin 1252,Naldo,Mendoza,Naldo Lombardi SA,2005,79
152.8961,152.90 kilómetros,1,-32.89205,-68.83912,ACA MENDOZA,19-1-02744,Autoservicio,AR-M,San Martin 958 0,FULL,MENDOZA,Operadora de Estaciones de Servicios S.A.,19,02744
153.0015,153.00 kilómetros,1,-32.8897,-68.8590,Vea 6.,9-1-174,Supermercado,AR-M,Paso De Los Andes 850,Vea,GODOY CRUZ,Jumbo Retail Argentina S.A.,9,174
153.2532,153.25 kilómetros,2,-32.894355,-68.845102,Mendoza Colón,10-2-282,Supermercado,AR-M,Av. Colón 324,Market,Mendoza,INC S.A.,10,282
153.2737,153.27 kilómetros,1,-32.9018,-68.7971,Vea 23 - Shopping.,9-1-189,Supermercado,AR-M,Acceso Este 3280,Vea,VILLA NUEVA DE GUAYMALLEN,Jumbo Retail Argentina S.A.,9,189
153.3379,153.34 kilómetros,1,-32.902087,-68.799261,MDZA-GUAYMALLEN-PLAZA SH-MU,2011-1-94,Supermercado,AR-M,Av. Acceso Este 3280 N. 01 Lo None,Musimundo,VILLA NUEVA DE GUAYMALLEN,Electronica Megatone S.A,2011,94
153.3428,153.34 kilómetros,1,-32.90248,-68.796749,MENDOZA PLAZA MALL,2003-1-7430,Tradicional,AR-M,Avenida Acceso Este 3280,Samsung,VILLA NUEVA,GMRA S.A.,2003,7430
153.4416,153.44 kilómetros,1,-32.90370,-68.79443,SHOPPING MENDOZA,19-1-02531,Autoservicio,AR-M,Acc.Este Y Avellaneda 0,FULL,MENDOZA,Operadora de Estaciones de Servicios S.A.,19,02531
153.5471,153.55 kilómetros,1,-32.9062,-68.7829,Vea 31.,9-1-398,Supermercado,AR-M,Bandera De Los Andes 10008,Vea,RODEO DE LA CRUZ,Jumbo Retail Argentina S.A.,9,398
153.5997,153.60 kilómetros,1,-32.9039,-68.8034,Vea 5.,9-1-173,Supermercado,AR-M,Ignacio Molina 325,Vea,VILLA NUEVA DE GUAYMALLEN,Jumbo Retail Argentina S.A.,9,173
153.862,153.86 kilómetros,1,-32.908234,-68.789274,Mendoza Guaymallén,10-1-17,Hipermercado,AR-M,Av. Acceso Este Lateral Sur 0,Hipermercado Carrefour,Guaymallen,INC S.A.,10,17
153.9706,153.97 kilómetros,1,-32.9029,-68.8329,Vea 33.,9-1-400,Supermercado,AR-M,Pedro Vargas 355,Vea,VILLA NUEVA DE GUAYMALLEN,Jumbo Retail Argentina S.A.,9,400
154.1032,154.10 kilómetros,1,-32.8997,-68.8598,Vea 21.,9-1-188,Supermercado,AR-M,Paso De Los Andes 82,Vea,MENDOZA,Jumbo Retail Argentina S.A.,9,188
154.2462,154.25 kilómetros,1,-32.9122,-68.7858,Vea 35.,9-1-401,Supermercado,AR-M,Urquiza 3620,Vea,MAIPU,Jumbo Retail Argentina S.A.,9,401
154.3364,154.34 kilómetros,2,-32.903094,-68.852428,Mendoza Bombal,10-2-290,Supermercado,AR-M,Beltrán 2078,Market,Godoy Cruz,INC S.A.,10,290
154.3519,154.35 kilómetros,1,-32.90192,-68.86020,MENDOZA 5TA.SECCION,19-1-02701,Autoservicio,AR-M,Cordón De Los Andes Y Andrade 0,FULL,Mendoza,Operadora de Estaciones de Servicios S.A.,19,02701
155.0125,155.01 kilómetros,1,-32.9140,-68.8228,LA BARRACA,9-1-857,Supermercado,AR-M,Las Cañas 1833,Vea,SAN JOSE DE GUAYMALLEN,Jumbo Retail Argentina S.A.,9,857
155.1091,155.11 kilómetros,5,-32.914510,-68.825287,Mendoza (24hs),11-5-3613,Hipermercado,AR-M,Moldes 1023,Walmart SuperCenter,VILLANUEVA,Wal Mart Argentina S.R.L.,11,3613
155.2726,155.27 kilómetros,1,-32.92742,-68.73567,RODEO DE LA CRUZ,19-1-02822,Autoservicio,AR-M,Carril Nac. Y Torrontegui 0,FULL,Guaymallen,Operadora de Estaciones de Servicios S.A.,19,02822
155.5596,155.56 kilómetros,1,-32.91633,-68.840158,MDZA-MENDOZA-LOS ANDES SH-MU,2011-1-165,Supermercado,AR-M,Gdor Gral Juan Ramon Balcarce 897,Musimundo,GODOY CRUZ,Electronica Megatone S.A,2011,165
155.5845,155.58 kilómetros,3,-32.9169,-68.8380,Jumbo Mendoza,9-3-5222,Hipermercado,AR-M,Balcarce Gonzalez Gdor Gral Juan Ramon 897,Jumbo,GODOY CRUZ,Jumbo Retail Argentina S.A.,9,5222
155.6497,155.65 kilómetros,1,-32.917243,-68.839614,EASY MENDOZA,3001-1-122,Hipermercado,AR-M,Gdor Gral J R Balcarce 735,EASY,Godoy Cruz,EASY S.A.,3001,122
155.7802,155.78 kilómetros,1,-32.9174,-68.8461,Vea 1.,9-1-170,Supermercado,AR-M,Avenida San Martin Sur Gral Jose De 698,Vea,GODOY CRUZ,Jumbo Retail Argentina S.A.,9,170
155.8266,155.83 kilómetros,1,-32.9127,-68.8762,Vea 7.,9-1-175,Supermercado,AR-M,America 2780,Vea,GODOY CRUZ,Jumbo Retail Argentina S.A.,9,175
156.5739,156.57 kilómetros,1,-32.93248,-68.7931,MAIPU,19-1-01238,Autoservicio,AR-M,Rodriguez Pena 1130,FULL,GRAL.GUTIERREZ,Operadora de Estaciones de Servicios S.A.,19,01238
157.9713,157.97 kilómetros,1,-32.9393,-68.8347,Vea 2.,9-1-171,Supermercado,AR-M,Sarmiento Domindo Faustino 998,Vea,GODOY CRUZ,Jumbo Retail Argentina S.A.,9,171
158.4331,158.43 kilómetros,1,-32.9414,-68.8483,Vea 8.,9-1-176,Supermercado,AR-M,Perito Moreno 1481,Vea,GODOY CRUZ,Jumbo Retail Argentina S.A.,9,176
159.7007,159.70 kilómetros,5,-32.951366,-68.858596,Palmares,11-5-1068,Hipermercado,AR-M,Avenida San Martín Sur 2575,Walmart SuperCenter,GODOY CRUZ,Wal Mart Argentina S.R.L.,11,1068
160.1373,160.14 kilómetros,1,-32.955546,-68.857566,PALMARES DE MENDOZA,2003-1-7360,Tradicional,AR-M,Avenida General San Martin Sur 2875,Samsung,GODOY CRUZ,GMRA S.A.,2003,7360
160.1565,160.16 kilómetros,1,-32.9557,-68.8577,Vea 26.,9-1-192,Supermercado,AR-M,R. Panamericana 2675,Vea,MENDOZA,Jumbo Retail Argentina S.A.,9,192
161.7092,161.71 kilómetros,2,-32.978813,-68.797142,Maipu,11-2-1015,Hipermercado,AR-M,Maza 470,Changomas,MAIPU,Wal Mart Argentina S.R.L.,11,1015
161.9782,161.98 kilómetros,1,-32.9824,-68.7883,Vea 20.,9-1-187,Supermercado,AR-M,Vasquez Padre 328,Vea,MAIPU,Jumbo Retail Argentina S.A.,9,187
162.0895,162.09 kilómetros,1,-32.9833833,-68.7885500,Maipu,2005-1-71,Autoservicio,AR-M,Padre Vazquez 237,Naldo,Maipu,Naldo Lombardi SA,2005,71
162.183,162.18 kilómetros,1,-32.984516,-68.786314,MDZA-MAIPU-SM-MU,2011-1-112,Autoservicio,AR-M,San Martin 323,Musimundo,MAIPU,Electronica Megatone S.A,2011,112
162.7899,162.79 kilómetros,3,-32.9798,-68.8582,Jumbo Vista Pueblo,9-3-5225,Hipermercado,AR-M,Avenida San Martin 6279,Jumbo,CARRODILLA  LA PUNTILLA,Jumbo Retail Argentina S.A.,9,5225
168.8742,168.87 kilómetros,1,-33.0325,-68.8777,Vea 18.,9-1-185,Supermercado,AR-M,San Martin 1211,Vea,TUNUYAN,Jumbo Retail Argentina S.A.,9,185
169.2676,169.27 kilómetros,1,-33.0359,-68.8790,Vea 30.,9-1-220,Supermercado,AR-M,San Martin 880,Vea,LUJAN DE CUYO,Jumbo Retail Argentina S.A.,9,220
169.3492,169.35 kilómetros,2,-33.036676,-68.878842,Mendoza Luján de Cuyo,10-2-289,Supermercado,AR-M,Azcuénaga 51,Market,Luján de Cuyo,INC S.A.,10,289
169.4518,169.45 kilómetros,1,-33.0372730,-68.8809340,Lujan de Cuyo,2005-1-69,Autoservicio,AR-M,Taboada 382,Naldo,Lujan De Cuyo,Naldo Lombardi SA,2005,69
169.7276,169.73 kilómetros,1,-33.03994,-68.880129,MDZA-LUJAN DE CUYO-SM-MU,2011-1-63,Autoservicio,AR-M,Avda Gral Jose De San Martin 421,Musimundo,LUJAN DE CUYO,Electronica Megatone S.A,2011,63
170.1413,170.14 kilómetros,1,-33.0708,-68.4729,Vea 17.,9-1-184,Supermercado,AR-M,Lavalle 942,Vea,BARRIO RIVADAVIA,Jumbo Retail Argentina S.A.,9,184
171.1116,171.11 kilómetros,2,-33.079826,-68.482803,San Martin,11-2-1067,Hipermercado,AR-M,Boulogne Sur Mer 700,Changomas,GENERAL SAN MARTIN,Wal Mart Argentina S.R.L.,11,1067
171.3629,171.36 kilómetros,1,-33.0818,-68.4722,Vea 15.,9-1-182,Supermercado,AR-M,9 De Julio 100,Vea,MENDOZA,Jumbo Retail Argentina S.A.,9,182
171.5216,171.52 kilómetros,1,-33.08305,-68.466394,MDZA-SAN MARTIN-9JUL-MU,2011-1-107,Autoservicio,AR-M,9 De Julio 208,Musimundo,SAN MARTIN,Electronica Megatone S.A,2011,107
171.8353,171.84 kilómetros,1,-33.0863,-68.4807,Vea 16.,9-1-183,Supermercado,AR-M,Perrupato 356,Vea,MENDOZA,Jumbo Retail Argentina S.A.,9,183
171.9207,171.92 kilómetros,1,-33.0865,-68.4619,Vea 32.,9-1-399,Supermercado,AR-M,Tropero Sosa 15,Vea,MENDOZA,Jumbo Retail Argentina S.A.,9,399
183.7039,183.70 kilómetros,1,-33.19287,-68.463316,MDZA-RIVADAVIA-S ISIDRO-MU,2011-1-179,Autoservicio,AR-M,San Isidro 849,Musimundo,RIVADAVIA,Electronica Megatone S.A,2011,179
210.4004,210.40 kilómetros,1,-33.3636,-69.1436,SM 545 Tupungato Mza.,9-1-545,Supermercado,AR-M,Liniers Santiago De 235,Vea,TUPUNGATO,Jumbo Retail Argentina S.A.,9,545
210.4595,210.46 kilómetros,2,-33.364039,-69.144079,Mendoza Tupungato,10-2-286,Supermercado,AR-M,Avenida Belgrano 1170,Market,Tupungato,INC S.A.,10,286
230.6334,230.63 kilómetros,1,-33.5766865,-69.0187405,Tunuyan,2005-1-68,Autoservicio,AR-M,San Martin 1280,Naldo,Tunuyan,Naldo Lombardi SA,2005,68
230.7362,230.74 kilómetros,1,-33.57808,-69.016092,MDZA-TUNUYAN-SM-MU,2011-1-81,Autoservicio,AR-M,Ruta Nac Gral Jose De San Mart 1137,Musimundo,TUNUYAN,Electronica Megatone S.A,2011,81
247.069,247.07 kilómetros,1,-33.41254,-67.11750,DESAGUADERO,19-1-30977,Autoservicio,AR-D,Ruta Nacional 7 Km 862 (Ascen) 0,FULL,DESAGUADERO,Operadora de Estaciones de Servicios S.A.,19,30977
249.7078,249.71 kilómetros,1,-30.3566,-66.3121,BAZAR AVENIDA SA - Chamical,2008-1-358,Tradicional,AR-F,Joaquin V. Gonzalez 202,MEGATONE,Chamical,BAZAR AVENIDA S.A.,2008,358
253.1299,253.13 kilómetros,1,-33.7763,-69.0620,SAN CARLOS,9-1-548,Supermercado,AR-M,Bosco San Juan 462,Vea,EUGENIO BUSTOS,Jumbo Retail Argentina S.A.,9,548
277.1165,277.12 kilómetros,1,-29.226695,-67.437710,LRJ - Chilecito - 25 de Mayo ,2009-1-18,Supermercado,AR-F,Av. 25 De Mayo 10,CETROGAR,Chilecito,CETROGAR  S.A,2009,18
281.5524,281.55 kilómetros,1,-29.16426,-67.494409,RIOJ-CHILECITO-CASTRO-MU,2011-1-134,Autoservicio,AR-F,Domingo De Castro Y Bazan 18,Musimundo,CHILECITO,Electronica Megatone S.A,2011,134
281.6664,281.67 kilómetros,1,-29.1629,-67.4952,BAZAR AVENIDA SA - Chilecito,2008-1-180,Tradicional,AR-F,La Plata 105,MEGATONE,Chilecito,BAZAR AVENIDA S.A.,2008,180
283.8149,283.81 kilómetros,2,-29.428056,-66.862434,La Rioja,11-2-1007,Hipermercado,AR-F,Ortiz De Ocampo 1127,Changomas,LA RIOJA,Wal Mart Argentina S.R.L.,11,1007
283.9097,283.91 kilómetros,1,-29.431887,-66.854255,EASY LA RIOJA,3001-1-154,Supermercado,AR-F,Artigas Y Avenida Laprida 0,EASY,LA RIOJA,EASY S.A.,3001,154
284.1369,284.14 kilómetros,1,-29.4295,-66.8541,La Rioja.,9-1-708,Supermercado,AR-F,Laprida Y Artigas 6811,Vea,LA RIOJA,Jumbo Retail Argentina S.A.,9,708
284.2836,284.28 kilómetros,2,-33.30003,-66.34277,SLILLIA [Av Presidente Illia 302],24-2-165,Autoservicio,AR-D,Av Presidente Illia 302,FARMACITY,San Luis,Farmacity S.A.,24,165
284.2941,284.29 kilómetros,1,-33.29304,-66.33493,SAN LUIS ESPAÑA,19-1-02848,Autoservicio,AR-D,Av. España Y Maipú 0,FULL,San Luis,Operadora de Estaciones de Servicios S.A.,19,02848
284.2981,284.30 kilómetros,1,-33.2968,-66.3390,San Luis II,9-1-853,Supermercado,AR-D,San Martin 1162,Vea,SAN MARTIN,Jumbo Retail Argentina S.A.,9,853
284.6759,284.68 kilómetros,2,-29.41925,-66.86148,RIO PERON [AV. Pte J D Peron 1002],24-2-149,Supermercado,AR-F,Av. Pte J D Peron 1002,FARMACITY,LA RIOJA,Farmacity S.A.,24,149
284.7161,284.72 kilómetros,1,-33.3004820,-66.3369458,San Luis,2005-1-43,Supermercado,AR-D,Colon 848,Naldo,San Luis,Naldo Lombardi SA,2005,43
284.7731,284.77 kilómetros,2,-33.30147,-66.33720,SLJunin [Junin 952],24-2-91,Supermercado,AR-D,Junin 952,FARMACITY,San Luis,Farmacity S.A.,24,91
284.8362,284.84 kilómetros,1,-33.3004,-66.3351,BAZAR AVENIDA SA - San Luis,2008-1-32,Tradicional,AR-D,Colon 878,MEGATONE,San Luis,BAZAR AVENIDA S.A.,2008,32
284.8936,284.89 kilómetros,2,-33.302748,-66.336848,San Luis,10-2-137,Supermercado,AR-D,Pringles 963,Market,San Luis,INC S.A.,10,137
285.0124,285.01 kilómetros,1,-33.3033711,-66.3357972,San Luis,2002-1-118,Tradicional,AR-D,Rivadavia Sur 649,Fravega,San Luis,FRAVEGA S A C I E I,2002,118
285.0278,285.03 kilómetros,1,-33.30345,-66.335659,SLUI-SAN LUIS-RIVAD-MU,2011-1-172,Autoservicio,AR-D,Rivadavia 631,Musimundo,SAN LUIS,Electronica Megatone S.A,2011,172
285.0378,285.04 kilómetros,1,-33.303669,-66.335754,SLU - San Luis - Colon,2009-1-79,Supermercado,AR-D,Peatonal Rivadavia 626,CETROGAR,San Luis,CETROGAR  S.A,2009,79
285.0655,285.07 kilómetros,2,-33.30396,-66.33567,SL PEATONAL [Rivadavia 602],24-2-152,Supermercado,AR-D,Rivadavia 602,FARMACITY,San Luis,Farmacity S.A.,24,152
285.3029,285.30 kilómetros,1,-29.4146391,-66.8577401,La Rioja,2002-1-146,Tradicional,AR-F,San Martin 89,Fravega,La Rioja,FRAVEGA S A C I E I,2002,146
285.4278,285.43 kilómetros,1,-29.4146061,-66.8554970,La Rioja,2005-1-74,Supermercado,AR-F,Rivadavia 536,Naldo,La Rioja,Naldo Lombardi SA,2005,74
285.5989,285.60 kilómetros,2,-29.41437,-66.85275,RIORIVADAVIA [Rivadavia 364],24-2-154,Supermercado,AR-F,Rivadavia 364,FARMACITY,LA RIOJA,Farmacity S.A.,24,154
285.6259,285.63 kilómetros,1,-29.41439,-66.85222,LA RIOJA,19-1-02626,Autoservicio,AR-F,Av.Rivadavia Y Benj.De La Vega 0,FULL,La Rioja,Operadora de Estaciones de Servicios S.A.,19,02626
285.6467,285.65 kilómetros,2,-29.411481,-66.856755,La Rioja,10-2-135,Supermercado,AR-F,25 De Mayo 151,Market,La Rioja,INC S.A.,10,135
285.6554,285.66 kilómetros,1,-29.41202,-66.855683,RIOJ-LA RIOJA-PELAGIO LUNA-MU,2011-1-144,Supermercado,AR-F,Dr Pelagio Baltazar Luna 519,Musimundo,LA RIOJA,Electronica Megatone S.A,2011,144
285.7277,285.73 kilómetros,1,-29.4114,-66.8554,BAZAR AVENIDA SA - La Rioja,2008-1-57,Tradicional,AR-F,Joaquin V. Gonzalez 151,MEGATONE,La Rioja,BAZAR AVENIDA S.A.,2008,57
285.7479,285.75 kilómetros,1,-29.411181,-66.855400,LRJ - La Rioja - J V Gonzales ,2009-1-16,Supermercado,AR-F,J. V. Gonzalez 173,CETROGAR,La Rioja,CETROGAR  S.A,2009,16
285.9614,285.96 kilómetros,1,-33.304764,-66.323469,EASY SAN LUIS,3001-1-145,Supermercado,AR-D,25 De Mayo Y Presidente Peron 0,EASY,San Luis,EASY S.A.,3001,145
286.083,286.08 kilómetros,1,-33.3065,-66.3236,Vea 52.,9-1-860,Supermercado,AR-D,Av. Julio A. Roca Esq. Av. Juan D. Peron 0,Vea,SAN LUIS,Jumbo Retail Argentina S.A.,9,860
286.1253,286.13 kilómetros,1,-33.307156,-66.323704,SAN LUIS SHOPPING,2003-1-7410,Tradicional,AR-D,Avenida Juan Gilberto Funes 260,Samsung,SAN LUIS,GMRA S.A.,2003,7410
286.7355,286.74 kilómetros,1,-29.4018,-66.8531,La Rioja II,9-1-705,Supermercado,AR-F,Avenida Alem Leandro Niceforo 678,Vea,LA RIOJA,Jumbo Retail Argentina S.A.,9,705
286.7563,286.76 kilómetros,5,-33.296619,-66.303039,San Luis,11-5-1003,Hipermercado,AR-D,Av Del Fundador (Ruta Nacional 7 Y 147) 1450,Walmart SuperCenter,SAN LUIS,Wal Mart Argentina S.R.L.,11,1003
320.5715,320.57 kilómetros,1,-31.9468,-65.1893,BAZAR AVENIDA SA - Villa Dolores,2008-1-83,Tradicional,AR-X,Av Manuel Belgrano 1096,MEGATONE,Villa Dolores,BAZAR AVENIDA S.A.,2008,83
321.5025,321.50 kilómetros,1,-31.946553,-65.179354,CDB - Villa Dolores - Av Belgrano ,2009-1-81,Supermercado,AR-X,Av. Belgrano 797,CETROGAR,Villa Dolores,CETROGAR  S.A,2009,81
321.922,321.92 kilómetros,1,-31.94744,-65.17502,CDBA-VILLA DOLORES-BELG-MU,2011-1-131,Autoservicio,AR-X,Avda Dr Manuel Belgrano 1279,Musimundo,VILLA DOLORES,Electronica Megatone S.A,2011,131
341.5727,341.57 kilómetros,1,-34.6128,-68.3403,Vea 25.,9-1-191,Supermercado,AR-M,Av. Yrigoyen Presindente 875,Vea,SAN RAFAEL,Jumbo Retail Argentina S.A.,9,191
341.7527,341.75 kilómetros,1,-34.61425,-68.33647,ACA SAN RAFAEL,19-1-02784,Autoservicio,AR-B,San Martin 958 0,FULL,MENDOZA,Operadora de Estaciones de Servicios S.A.,19,02784
341.9334,341.93 kilómetros,1,-34.6155845944175,-68.33015149444094,SAN RAFAEL,24-1-358,Autoservicio,AR-M,Hipólito Irigoyen 50,SIMPLICITY,SAN RAFAEL,Farmacity S.A.,24,358
342.0346,342.03 kilómetros,1,-34.61642,-68.328504,MDZA-SAN RAFAEL-MITRE-MU,2011-1-67,Supermercado,AR-M,Dr Bernardo De Irigoyen 9,Musimundo,SAN RAFAEL,Electronica Megatone S.A,2011,67
342.0434,342.04 kilómetros,1,-34.6166376,-68.3314027,San Rafael,2005-1-57,Supermercado,AR-M,Mitre 70,Naldo,San Rafael,Naldo Lombardi SA,2005,57
342.5487,342.55 kilómetros,1,-34.6205,-68.3171,SM 584 San Rafael III Mza.,9-1-584,Supermercado,AR-M,Av. Mitre Y Patricias Mendocinas 0,Vea,SAN RAFAEL,Jumbo Retail Argentina S.A.,9,584
342.868,342.87 kilómetros,1,-34.6242,-68.3339,Vea 53.,9-1-868,Supermercado,AR-M,Avenida El Libertador 755,Vea,SAN RAFAEL,Jumbo Retail Argentina S.A.,9,868
343.0167,343.02 kilómetros,1,-34.62559,-68.33492,SARMIENTO,19-1-02782,Autoservicio,AR-M,Avda. El Libertador 898 0,FULL,San Rafael,Operadora de Estaciones de Servicios S.A.,19,02782
345.5779,345.58 kilómetros,1,-32.34621,-65.008993,SLUI-MERLO-AV SOL-MU,2011-1-198,Autoservicio,AR-D,Avda Del Sol 305,Musimundo,MERLO,Electronica Megatone S.A,2011,198
367.4894,367.49 kilómetros,1,-30.725576,-64.803332,CDBA-CRUZ DEL EJE-ALVEAR-MU,2011-1-227,Autoservicio,AR-X,Marcelo T De Alvear 74,Musimundo,CRUZ DEL EJE,Electronica Megatone S.A,2011,227
367.6512,367.65 kilómetros,1,-30.727658,-64.800934,CDB - Cruz del Eje - San Martin ,2009-1-51,Supermercado,AR-X,San Marti­N 51,CETROGAR,Cruz del Eje,CETROGAR  S.A,2009,51
367.6655,367.67 kilómetros,1,-30.724778,-64.80168,Sucursal 6,8-1-6,Hipermercado,AR-X,Av. Mitre  Esquina José Hernández 0,Mariano Max,CRUZ DEL EJE,Mariano S.A.,8,6
367.7713,367.77 kilómetros,2,-30.7249,-64.8005,Cruz del Eje.,9-2-842,Supermercado,AR-X,"Rivadavia, Esquina Alvear 293",Disco,CRUZ DEL EJE,Jumbo Retail Argentina S.A.,9,842
369.9408,369.94 kilómetros,1,-28.5549,-66.8173,BAZAR AVENIDA SA - Aimogasta,2008-1-366,Tradicional,AR-F,25 De Mayo 766,MEGATONE,Aimogasta,BAZAR AVENIDA S.A.,2008,366
373.1499,373.15 kilómetros,1,-33.675929,-65.469225,Villa Mercedes,10-1-235,Hipermercado,AR-D,Av. 25 De Mayo 876,Hipermercado Carrefour,Villa Mercedes,INC S.A.,10,235
373.7621,373.76 kilómetros,1,-33.6833572,-65.4678879,Villa Mercedes,2005-1-38,Supermercado,AR-D,Balcarce 319,Naldo,Villa Mercedes,Naldo Lombardi SA,2005,38
373.7888,373.79 kilómetros,2,-33.67994,-65.46425,SLMitre [Córdoba 37],24-2-166,Supermercado,AR-D,Cordoba 37,FARMACITY,Villa Mercedes,Farmacity S.A.,24,166
373.8527,373.85 kilómetros,1,-33.6806,-65.4640,Vea 36.,9-1-423,Supermercado,AR-D,Avenida Mitre 679,Vea,VILLA MERCEDES,Jumbo Retail Argentina S.A.,9,423
373.9,373.90 kilómetros,1,-33.685875,-65.468397,SLU - Villa Mercedes - Belgrano ,2009-1-91,Supermercado,AR-D,Pedernera 381,CETROGAR,Villa Mercedes,CETROGAR  S.A,2009,91
373.9176,373.92 kilómetros,1,-33.686389,-65.468648,SLUI-VILLA MERCEDES-PED-MU,2011-1-175,Autoservicio,AR-D,Buenos Aires Y Pedernera None,Musimundo,VILLA MERCEDES,Electronica Megatone S.A,2011,175
373.96,373.96 kilómetros,2,-33.684345,-65.466103,SLPedernera [Pedernera 424],24-2-97,Supermercado,AR-D,Pedernera 424,FARMACITY,Villa Mercedes,Farmacity S.A.,24,97
374.1292,374.13 kilómetros,1,-33.6873,-65.4666,BAZAR AVENIDA SA - Villa Mercedes,2008-1-31,Tradicional,AR-D,Pedernera 380,MEGATONE,Villa Mercedes,BAZAR AVENIDA S.A.,2008,31
374.6815,374.68 kilómetros,2,-33.680309,-65.452308,Villa Mer,11-2-1055,Hipermercado,AR-D,Av Pte Peron E/J Daract Y Necochea 825,Changomas,VILLA MERCEDES,Wal Mart Argentina S.R.L.,11,1055
380.8644,380.86 kilómetros,1,-31.98675,-64.55372,VILLA GRAL. BELGRANO,19-1-02119,Autoservicio,AR-X,Paguaga  555 0,FULL,CORDOBA,Operadora de Estaciones de Servicios S.A.,19,02119
383.5442,383.54 kilómetros,1,-32.0687,-64.5372,BAZAR AVENIDA SA - Calamuchita,2008-1-403,Tradicional,AR-X,Libertad 248,MEGATONE,Santa Rosa De Calamuchita,BAZAR AVENIDA S.A.,2008,403
383.9165,383.92 kilómetros,2,-31.4367,-64.5007,Carcano.,9-2-448,Supermercado,AR-X,Avenida Carcano Dr Ramon Jose 925,Disco,VILLA CARLOS PAZ,Jumbo Retail Argentina S.A.,9,448
384.1584,384.16 kilómetros,3,-31.420530,-64.499099,San Martín 26,10-3-650,Autoservicio,AR-X,San Martín 26,Express,Córdoba,INC S.A.,10,650
384.2513,384.25 kilómetros,1,-31.42001,-64.498155,CDBA-V CARLOS PAZ-SM-MU,2011-1-173,Autoservicio,AR-X,Avda San Martin 93,Musimundo,VILLA CARLOS PAZ,Electronica Megatone S.A,2011,173
384.2827,384.28 kilómetros,1,-31.4200500,-64.4978230,Carlos Paz,2002-1-176,Tradicional,AR-X,Av. San Martin 95,Fravega,Carlos Paz,FRAVEGA S A C I E I,2002,176
384.2947,384.29 kilómetros,1,-31.42,-64.4977,BAZAR AVENIDA SA - Carlos Paz II,2008-1-421,Tradicional,AR-X,Av. San Martin 101,MEGATONE,Villa Carlos Paz,BAZAR AVENIDA S.A.,2008,421
384.3074,384.31 kilómetros,1,-31.4259293,-64.4972102,Carlos Paz,2005-1-50,Autoservicio,AR-X,Ramon Carcano 220,Naldo,Villa Carlos Paz,Naldo Lombardi SA,2005,50
384.5491,384.55 kilómetros,2,-31.4188,-64.4951,Carlos Paz.,9-2-233,Supermercado,AR-X,San Martin 311,Disco,VILLA CARLOS PAZ,Jumbo Retail Argentina S.A.,9,233
384.6748,384.67 kilómetros,1,-31.41572,-64.49397,VILLA CARLOS PAZ,19-1-02501,Autoservicio,AR-X,Uruguay 680 Esq.Bolsacher 0,FULL,Villa Carlos Paz,Operadora de Estaciones de Servicios S.A.,19,02501
385.5257,385.53 kilómetros,2,-31.4130,-64.4852,Acceso.,9-2-449,Supermercado,AR-X,San Martin 1173,Disco,VILLA CARLOS PAZ,Jumbo Retail Argentina S.A.,9,449
388.2525,388.25 kilómetros,1,-34.9666,-67.7000,Vea 50.,9-1-803,Supermercado,AR-M,Avenida Libertador San Martin Norte 229,Vea,GENERAL ALVEAR,Jumbo Retail Argentina S.A.,9,803
388.8146,388.81 kilómetros,1,-31.240812,-64.466448,CDB - Cosquin - J C Geronico,2009-1-56,Supermercado,AR-X,Geronico 735,CETROGAR,Cosquin,CETROGAR  S.A,2009,56
388.8247,388.82 kilómetros,2,-31.2445,-64.4659,Cosquín.,9-2-450,Supermercado,AR-X,Avenida San Martin Gral Jose De 1127,Disco,COSQUIN,Jumbo Retail Argentina S.A.,9,450
388.9199,388.92 kilómetros,1,-31.0901,-64.4873,BAZAR AVENIDA SA - La Falda,2008-1-28,Tradicional,AR-X,Av. España 212,MEGATONE,La Falda,BAZAR AVENIDA S.A.,2008,28
388.9247,388.92 kilómetros,1,-31.108277,-64.484196,Sucursal 8,8-1-8,Hipermercado,AR-X,Ruta Nac Nº 38 Esquina Calle Las Sierras 0,Mariano Max,Valle Hermoso,Mariano S.A.,8,8
389.0073,389.01 kilómetros,1,-31.23856,-64.464691,CDBA-COSQUIN-SM-MU,2011-1-180,Autoservicio,AR-X,Avda Gral Jose De San Martin 762,Musimundo,COSQUIN,Electronica Megatone S.A,2011,180
389.0229,389.02 kilómetros,1,-31.099691,-64.484587,CDB - La Falda - Av España ,2009-1-48,Supermercado,AR-X,Av. Espana 100,CETROGAR,La Falda,CETROGAR  S.A,2009,48
389.0343,389.03 kilómetros,1,-31.2411,-64.4641,BAZAR AVENIDA SA - Cosquin,2008-1-30,Tradicional,AR-X,J.C Geronico 756,MEGATONE,Cosquin,BAZAR AVENIDA S.A.,2008,30
389.28,389.28 kilómetros,2,-31.0930,-64.4830,La Falda.,9-2-452,Supermercado,AR-X,Avenida Eden 370,Disco,LA FALDA,Jumbo Retail Argentina S.A.,9,452
389.5271,389.53 kilómetros,1,-34.9768466,-67.6913833,General Alvear,2005-1-54,Supermercado,AR-M,Avenida Libertador Norte 121,Naldo,General Alvear,Naldo Lombardi SA,2005,54
389.5817,389.58 kilómetros,1,-31.09286,-64.479835,CDBA-LA FALDA-EDEN-MU,2011-1-186,Autoservicio,AR-X,Avda Eden 634,Musimundo,LA FALDA,Electronica Megatone S.A,2011,186
389.6479,389.65 kilómetros,1,-34.97795,-67.691331,MDZA-GENERAL ALVEAR-ALVEAR-MU,2011-1-89,Autoservicio,AR-M,Avda Alvear Oeste 161,Musimundo,GENERAL ALVEAR,Electronica Megatone S.A,2011,89
389.8124,389.81 kilómetros,1,-31.6576661,-64.4346239,Alta Gracia,2005-1-45,Autoservicio,AR-X,Belgrano 135,Naldo,Alta Gracia,Naldo Lombardi SA,2005,45
390.0036,390.00 kilómetros,1,-31.65753,-64.43261,CDBA-ALTA GRACIA-BELG-MU,2011-1-209,Autoservicio,AR-X,Avda Manuel Belgrano 105,Musimundo,ALTA GRACIA,Electronica Megatone S.A,2011,209
390.0522,390.05 kilómetros,1,-31.6576,-64.4321,BAZAR AVENIDA SA - Alta Gracia,2008-1-25,Tradicional,AR-X,Belgrano 153,MEGATONE,Alta Gracia,BAZAR AVENIDA S.A.,2008,25
390.5363,390.54 kilómetros,2,-31.6512,-64.4269,Alta Gracia.,9-2-725,Supermercado,AR-X,Raul Alfonsin 650,Disco,ALTA GRACIA,Jumbo Retail Argentina S.A.,9,725
392.0538,392.05 kilómetros,1,-31.666646,-64.411215,Super Mami 7,1-1-12,Hipermercado,AR-X,Ruta Provincial 5 Km 29 None,Super MAMI,ALTA GRACIA,Dinosaurio S.A.,1,12
392.1596,392.16 kilómetros,2,-31.6559,-64.4099,Alta Gracia II,9-2-954,Supermercado,AR-X,Ruta Provincial 5 E/ Reconquista Y Publica 0,Disco,ALTA GRACIA,Jumbo Retail Argentina S.A.,9,954
399.9351,399.94 kilómetros,1,-31.3451,-64.3388,La Calera..,9-1-485,Supermercado,AR-X,Moyano Saul 200,Vea,CORDOBA,Jumbo Retail Argentina S.A.,9,485
400.1379,400.14 kilómetros,1,-31.34632,-64.336565,CDBA-LA CALERA-SM-MU,2011-1-220,Autoservicio,AR-X,San Martin 577,Musimundo,LA CALERA,Electronica Megatone S.A,2011,220
402.1578,402.16 kilómetros,2,-31.1833,-64.3333,Rio Ceballos.,9-2-843,Supermercado,AR-X,Avenida San Martin 5259,Disco,RIO CEBALLOS,Jumbo Retail Argentina S.A.,9,843
403.662,403.66 kilómetros,1,-31.1678,-64.3196,BAZAR AVENIDA SA - Rio Ceballos,2008-1-398,Tradicional,AR-X,Av. San Martin 4850,MEGATONE,Rio Ceballos,BAZAR AVENIDA S.A.,2008,398
403.8464,403.85 kilómetros,1,-31.171592,-64.317123,CDBA-RIO CEBALLOS-SM-MU,2011-1-269,Autoservicio,AR-X,Av. San Martin 4246,Musimundo,RIO CEBALLOS,Electronica Megatone S.A,2011,269
404.8246,404.82 kilómetros,1,-31.334028,-64.288360,PASEO RIVERA INDARTE,2003-1-7630,Tradicional,AR-X,Avenida Enrique Bodereau 7571,Samsung,CORDOBA,GMRA S.A.,2003,7630
404.9764,404.98 kilómetros,1,-31.3003,-64.2899,Villa Allende,23-1-6269,Autoservicio,AR-X,Av. Goycochea 1235,Axion Energy,Villa Allende,Pan American Energy LLC Argentina,23,6269
405.1616,405.16 kilómetros,1,-31.29942,-64.28804,ACA VILLA ALLENDE,19-1-03235,Autoservicio,AR-C,Goycoechea 1169 0,FULL,VILLA ALLENDE,Operadora de Estaciones de Servicios S.A.,19,03235
405.3742,405.37 kilómetros,2,-31.3015,-64.2856,SM 583 - Villa Allende.,9-2-583,Supermercado,AR-X,Goycoechea 1327,Disco,VILLA ALLENDE,Jumbo Retail Argentina S.A.,9,583
405.4684,405.47 kilómetros,2,-31.3468,-64.2805,Recta Martinolli ll,9-2-709,Supermercado,AR-X,Avenida Recta Martinoli 8469,Disco,CORDOBA,Jumbo Retail Argentina S.A.,9,709
406.2571,406.26 kilómetros,1,-31.300019,-64.276462,Córdoba Villa Allende,10-1-54,Hipermercado,AR-X,Av. Río De Janeiro 1787,Hipermercado Carrefour,Villa Allende Lomas,INC S.A.,10,54
406.4299,406.43 kilómetros,1,-31.322263,-64.272537,CDB - Cordoba - Av Donato Alvarez ,2009-1-86,Supermercado,AR-X,Av. Donato Alvarez 8840,CETROGAR,Villa Allende,CETROGAR  S.A,2009,86
406.5356,406.54 kilómetros,1,-31.346646,-64.269297,Córdoba Recta Martinolli,10-1-50,Hipermercado,AR-X,Recta Martinolli 7850,Hipermercado Carrefour,Quintas de Arguello,INC S.A.,10,50
406.5463,406.55 kilómetros,1,-31.126667,-64.295250,Super Mami 4,1-1-7,Hipermercado,AR-X,E53 1011 None,Super MAMI,SALSIPUEDES,Dinosaurio S.A.,1,7
406.6283,406.63 kilómetros,2,-31.347528,-64.268249,Recta Martinioli CBA [Av. Recta Mar,24-2-312,Supermercado,AR-X,Av. Recta Martinoli 7759,FARMACITY,Córdoba,Farmacity S.A.,24,312
406.74,406.74 kilómetros,2,-31.324020,-64.269118,Cordoba Donato Alvarez,11-2-1097,Hipermercado,AR-X,Avenida Donato Alvarez 8600,Changomas,BARRIO AERONAUTICO *,Wal Mart Argentina S.R.L.,11,1097
407.0838,407.08 kilómetros,1,-31.378776,-64.261021,EASY CORDOBA CARCANO,3001-1-121,Supermercado,AR-X,Avenida Ramon Carcano 995,EASY,"Chateau Carreras, Cordoba",EASY S.A.,3001,121
407.094,407.09 kilómetros,5,-31.395535,-64.259731,Córdoba OE,11-5-3605,Hipermercado,AR-X,Av Colon 6051,Walmart SuperCenter,CIUDAD DE CORDOBA NORTE,Wal Mart Argentina S.R.L.,11,3605
408.187,408.19 kilómetros,1,-31.35030,-64.25164,CORDOBA ARGUELLO,19-1-02101,Autoservicio,AR-X,Av.Recta Martinoli Y Ticho Bra 0,FULL,CORDOBA,Operadora de Estaciones de Servicios S.A.,19,02101
408.3768,408.38 kilómetros,2,-31.432014,-64.243991,CDBA-Fuerza Aerea,11-2-1060,Supermercado,AR-X,Av Fuerza Aerea Argentina 4372,Changomas,BARRIO MATIENZO *,Wal Mart Argentina S.R.L.,11,1060
408.4645,408.46 kilómetros,2,-31.349526,-64.248787,CBACerro2 [Rafael Nuñez 4418],24-2-86,Supermercado,AR-X,Rafael Nuñez 4418,FARMACITY,Córdoba,Farmacity S.A.,24,86
408.686,408.69 kilómetros,1,-31.3527,-64.2462,Arguello.,9-1-475,Supermercado,AR-X,Avenida Nuñez Rafael 5557,Vea,CORDOBA,Jumbo Retail Argentina S.A.,9,475
408.7128,408.71 kilómetros,1,-31.393915,-64.242835,Córdoba Colon,10-1-9,Hipermercado,AR-X,Av. Colón 4880,Hipermercado Carrefour,Villa Urquiza,INC S.A.,10,9
409.21,409.21 kilómetros,1,-31.3969809,-64.2374040,Cordoba Norte,2002-1-169,Tradicional,AR-X,Av. Colon 4330,Fravega,Cordoba,FRAVEGA S A C I E I,2002,169
409.3573,409.36 kilómetros,1,-31.397407,-64.235828,CDB - Cordoba - Av Colon,2009-1-67,Supermercado,AR-X,Av. Colon  Esq. Sagrada Familia 4289,CETROGAR,Cordoba,CETROGAR  S.A,2009,67
409.4485,409.45 kilómetros,1,-31.39798,-64.234831,CDBA-CORDOBA-COLON-MU,2011-1-135,Autoservicio,AR-X,Avda Colon 4213,Musimundo,CORDOBA,Electronica Megatone S.A,2011,135
409.512,409.51 kilómetros,2,-31.3630,-64.2367,Cerro las Rosas.,9-2-29,Supermercado,AR-X,Avenida Nuñez Rafaal 4630,Disco,CORDOBA,Jumbo Retail Argentina S.A.,9,29
409.531,409.53 kilómetros,1,-31.36442,-64.23639,ACA CORDOBA RAFAEL NUÑEZ,19-1-03264,Autoservicio,AR-X,Av.Rafael Nuñez Y Echenique 0,FULL,CORDOBA,Operadora de Estaciones de Servicios S.A.,19,03264
409.6312,409.63 kilómetros,3,-31.402219,-64.232631,27 de Abril 458,10-3-766,Autoservicio,AR-X,27 De Abril 458,Express,Córdoba,INC S.A.,10,766
409.7445,409.74 kilómetros,1,-31.412738,-64.230768,Sucursal 5,8-1-5,Hipermercado,AR-X,Av. Santa Ana 3551,Mariano Max,CORDOBA,Mariano S.A.,8,5
409.8254,409.83 kilómetros,2,-31.36879,-64.23296,CBACLasRosas [Rafael Nuñez 4053],24-2-60,Autoservicio,AR-X,Rafael Nuñez 4053,FARMACITY,Córdoba,Farmacity S.A.,24,60
410.1262,410.13 kilómetros,2,-31.431295,-64.225656,FUERZA AÉREA II CBA [Fuerza Aérea 2789],24-2-274,Supermercado,AR-X,Fuerza Aérea Ii 2789,FARMACITY,Córdoba,Farmacity S.A.,24,274
410.1639,410.16 kilómetros,1,-31.43119,-64.225266,CDBA-CORDOBA-FUERZA AEREA-MU,2011-1-221,Autoservicio,AR-X,Avda Fuerza Aerea Argentina 2769,Musimundo,CORDOBA,Electronica Megatone S.A,2011,221
410.4297,410.43 kilómetros,2,-31.363195,-64.227042,CBA CORDILLERA [Av. La Cordillera 3941],24-2-168,Supermercado,AR-X,Av. La Cordillera 3941,FARMACITY,Córdoba,Farmacity S.A.,24,168
410.5195,410.52 kilómetros,1,-31.36395,-64.22604,CORDOBA LA CORDILLERA,19-1-02102,Autoservicio,AR-X,Av. Cordillera Y Spilimbergo 0,FULL,CORDOBA,Operadora de Estaciones de Servicios S.A.,19,02102
410.612,410.61 kilómetros,2,-31.373278,-64.224357,CBACerro3 [Av. Rafael Nuñez 3660],24-2-109,Autoservicio,AR-X,Av. Rafael Nuñez 3660,FARMACITY,Córdoba,Farmacity S.A.,24,109
410.6995,410.70 kilómetros,2,-31.3806,-64.2229,Cerro II.,9-2-436,Supermercado,AR-X,Avenida Nuñez Rafael 3657,Disco,CORDOBA,Jumbo Retail Argentina S.A.,9,436
410.7653,410.77 kilómetros,1,-31.4303,-64.2190,Ruta 20.,9-1-437,Supermercado,AR-X,Avenida Fuerza Aerea Argentina 2080,Vea,CORDOBA,Jumbo Retail Argentina S.A.,9,437
411.0493,411.05 kilómetros,1,-31.463799,-64.214291,Super Mami 3,1-1-5,Hipermercado,AR-X,Gondola De Venecia 7,Super MAMI,CORDOBA,Dinosaurio S.A.,1,5
411.0848,411.08 kilómetros,1,-31.38622,-64.21845,VILLA CABRERA,19-1-02110,Autoservicio,AR-X,Avda. Caraffa Y Octavio Pinto 0,FULL,CORDOBA,Operadora de Estaciones de Servicios S.A.,19,02110
411.0961,411.10 kilómetros,2,-31.430583,-64.215509,CBA Fza Aerea [Av. Fuerza Aérea Argen,24-2-210,Autoservicio,AR-X,Fza. Aerea Argentina 1895,FARMACITY,Córdoba,Farmacity S.A.,24,210
411.129,411.13 kilómetros,2,-31.3670,-64.2194,Recta Martinolli.,9-2-468,Supermercado,AR-X,Recta Martinolli 7120,Disco,CORDOBA,Jumbo Retail Argentina S.A.,9,468
411.1339,411.13 kilómetros,1,-31.366472,-64.219389,Super Mami 5,1-1-1,Hipermercado,AR-X,Rodriguez Del Busto 4086,Super MAMI,CORDOBA,Dinosaurio S.A.,1,1
411.3775,411.38 kilómetros,1,-31.38056,-64.215779,CDBA-CORDOBA-CORDOBA SH-MU,2011-1-294,Supermercado,AR-X,Jose Goyechea 2851,Musimundo,CORDOBA,Electronica Megatone S.A,2011,294
411.3788,411.38 kilómetros,1,-31.428833,-64.212639,Super Mami 2,1-1-2,Hipermercado,AR-X,Av. Fuerza Aerea 1700,Super MAMI,CORDOBA,Dinosaurio S.A.,1,2
411.4029,411.40 kilómetros,1,-31.363141,-64.216820,PASEO LUGONES,2003-1-7640,Tradicional,AR-X,Oliverio Girondo 3303,Samsung,CORDOBA,GMRA S.A.,2003,7640
411.4453,411.45 kilómetros,1,-31.380315,-64.215085,CORDOBA SHOPPING,2003-1-7370,Tradicional,AR-X,Jose Antonio De Goyechea 2851,Samsung,CORDOBA,GMRA S.A.,2003,7370
411.4827,411.48 kilómetros,2,-31.3802,-64.2147,Córdoba Shopping.,9-2-60,Supermercado,AR-X,Goyechea 2851,Disco,CORDOBA,Jumbo Retail Argentina S.A.,9,60
411.5849,411.58 kilómetros,1,-31.4054,-64.2119,Zanni.,9-1-455,Supermercado,AR-X,Avenida Colon Esquina P. Zanni 0,Vea,CORDOBA,Jumbo Retail Argentina S.A.,9,455
411.6027,411.60 kilómetros,2,-31.374529,-64.213855,Córdoba Granaderos,10-2-295,Supermercado,AR-X,Bvard. Granaderos 2906,Market,Alto Verde,INC S.A.,10,295
411.7284,411.73 kilómetros,3,-31.411817,-64.209985,DUARTE Q. 1851,10-3-789,Autoservicio,AR-X,Duarte Q. 1851,Express,Córdoba,INC S.A.,10,789
411.8661,411.87 kilómetros,1,-31.4536,-64.2062,Armada Argentina.,9-1-466,Supermercado,AR-X,Avenida Armada Argentina 334,Vea,CORDOBA,Jumbo Retail Argentina S.A.,9,466
412.1083,412.11 kilómetros,2,-31.315149,-64.213501,CBA Aerop.Pajas Blancas [Aeropuerto Cordoba],24-2-34,Autoservicio,AR-X,Cba Aerop.Pajas Blancas [Aeropuerto Cordoba] 0,FARMACITY,Córdoba,Farmacity S.A.,24,34
412.1772,412.18 kilómetros,3,-31.406416,-64.205613,Avenida Colón€1750 (Córdoba),10-3-810,Autoservicio,AR-X,Avenida Colón 1750,Express,Córdoba,INC S.A.,10,810
412.2421,412.24 kilómetros,1,-31.412931,-64.204520,NUEVO CENTRO,2003-1-7400,Tradicional,AR-X,Avenida Duarte Quiros 1400,Samsung,CORDOBA,GMRA S.A.,2003,7400
412.2516,412.25 kilómetros,1,-31.367443,-64.207571,CDBA-CORDOBA-HIPERCONST SH-MU,2011-1-310,Supermercado,AR-X,Av Cardeñosa Y Fray Luis Beltr None,Musimundo,MARQUES DE SOBREMONTES,Electronica Megatone S.A,2011,310
412.2817,412.28 kilómetros,1,-31.41323,-64.204085,CDBA-CORDOBA-NUEVOCENTRO SH-MU,2011-1-192,Supermercado,AR-X,Avda Duarte Quiros 1400,Musimundo,CORDOBA,Electronica Megatone S.A,2011,192
412.3235,412.32 kilómetros,2,-31.376966,-64.206102,Bv. los Granaderos CBA [Bv. Los Granaderos 2455],24-2-306,Supermercado,AR-X,Boulevard Los Granaderos 2455,FARMACITY,Córdoba,Farmacity S.A.,24,306
412.3593,412.36 kilómetros,1,-31.37100,-64.20617,CORDOBA LA FRANCE,19-1-03263,Autoservicio,AR-X,Cabrera Y Cardeñosa 0,FULL,CORDOBA,Operadora de Estaciones de Servicios S.A.,19,03263
412.4009,412.40 kilómetros,1,-31.457372,-64.200399,Sucursal 7,8-1-7,Hipermercado,AR-X,Av. Vélez Sársfield 4051,Mariano Max,CORDOBA,Mariano S.A.,8,7
412.5424,412.54 kilómetros,2,-31.448654,-64.199345,CBA VELEZ SARSFIELD 2 [Av. Vélez Sarsfield n° 3335,24-2-223,Autoservicio,AR-X,Av. Vélez Sarsfield 3335,FARMACITY,Córdoba,Farmacity S.A.,24,223
412.56,412.56 kilómetros,2,-31.408211,-64.201477,Colon 3 CBA [Colon 1356/58],24-2-295,Supermercado,AR-X,Colon 1356,FARMACITY,Córdoba,Farmacity S.A.,24,295
412.5794,412.58 kilómetros,2,-31.4478,-64.1990,Vélez Sarsfield.,9-2-28,Supermercado,AR-X,Friuli 1845,Disco,CORDOBA,Jumbo Retail Argentina S.A.,9,28
412.6354,412.64 kilómetros,2,-31.424285,-64.199703,CBAPueyrredon [Pueyrredon 60],24-2-88,Autoservicio,AR-X,Pueyrredon 60,FARMACITY,Córdoba,Farmacity S.A.,24,88
412.8153,412.82 kilómetros,3,-31.402623,-64.199156,Santa Fe 723,10-3-771,Autoservicio,AR-X,Santa Fe 723,Express,Córdoba,INC S.A.,10,771
412.9474,412.95 kilómetros,3,-31.417677,-64.196820,SAN JUAN 835,10-3-793,Autoservicio,AR-X,San Juan 835,Express,Córdoba,INC S.A.,10,793
412.9999,413.00 kilómetros,2,-31.400508,-64.197356,CBACBarros [Castro Barros 523],24-2-90,Autoservicio,AR-X,Castro Barros 523,FARMACITY,Córdoba,Farmacity S.A.,24,90
413.1787,413.18 kilómetros,2,-31.4191264,-64.1943026,Bv. San Juan II CBA [Bv. San Juan 460],24-2-314,Supermercado,AR-X,Boulevard San Juan N° 460/466 460,FARMACITY,Córdoba,Farmacity S.A.,24,314
413.2869,413.29 kilómetros,3,-31.425978,-64.192761,Pueyrredón 298,10-3-610,Autoservicio,AR-X,Av. Pueyrredón 298,Express,Córdoba,INC S.A.,10,610
413.3567,413.36 kilómetros,2,-31.41091,-64.192938,CBAColon 2 [Colon 717],24-2-75,Supermercado,AR-X,Colon 717,FARMACITY,Córdoba,Farmacity S.A.,24,75
413.38,413.38 kilómetros,2,-31.4108,-64.1927,Colón.,9-2-439,Supermercado,AR-X,Avenida Colon 683,Disco,CORDOBA,Jumbo Retail Argentina S.A.,9,439
413.423,413.42 kilómetros,3,-31.428959,-64.191160,Ovispo Trejo 1166,10-3-606,Autoservicio,AR-X,Ovispo Trejo 1166,Express,Córdoba,INC S.A.,10,606
413.427,413.43 kilómetros,3,-31.413448,-64.192041,Lavalleja 49,10-3-772,Autoservicio,AR-X,Lavalleja 49,Express,Córdoba,INC S.A.,10,772
413.4293,413.43 kilómetros,2,-31.41324,-64.19203,CBALacañada [Gral J A Lavalleja 34],24-2-131,Supermercado,AR-X,Gral J A Lavalleja 34,FARMACITY,Córdoba,Farmacity S.A.,24,131
413.6153,413.62 kilómetros,3,-31.420240,-64.189650,SAN JUAN 217,10-3-785,Autoservicio,AR-X,San Juan 217,Express,Córdoba,INC S.A.,10,785
413.6989,413.70 kilómetros,1,-31.4116,-64.1893,Colon II.,9-1-476,Supermercado,AR-X,Avenida Colon 461,Vea,CORDOBA,Jumbo Retail Argentina S.A.,9,476
413.7286,413.73 kilómetros,3,-31.430384,-64.187869,Proxi Chile 154 (CBA),10-3-736,Autoservicio,AR-X,Chile 154,Express,Córdoba,INC S.A.,10,736
413.7307,413.73 kilómetros,2,-31.4277,-64.1880,Estrada.,9-2-441,Supermercado,AR-X,J.M. Estada 66,Disco,CORDOBA,Jumbo Retail Argentina S.A.,9,441
413.7485,413.75 kilómetros,1,-31.419904,-64.188271,PATIO OLMOS,2003-1-7670,Tradicional,AR-X,Avenida Velez Sarsfield 361,Samsung,CORDOBA,GMRA S.A.,2003,7670
413.7501,413.75 kilómetros,3,-31.415363,-64.188530,Belgrano 54,10-3-648,Autoservicio,AR-X,Belgrano 54,Express,Córdoba,INC S.A.,10,648
413.7547,413.75 kilómetros,1,-31.4450,-64.1868,Ipona.,9-1-472,Supermercado,AR-X,Avenida Ciudad De Valparaiso 2048,Vea,CORDOBA,Jumbo Retail Argentina S.A.,9,472
413.764,413.76 kilómetros,2,-31.416192,-64.188333,CBA27deabril [27 de Abril 284],24-2-83,Autoservicio,AR-X,27 De Abril 284,FARMACITY,Córdoba,Farmacity S.A.,24,83
413.8025,413.80 kilómetros,2,-31.42013,-64.18769,CBA BVSANJUAN [Bv. San Juan Nº 24],24-2-157,Autoservicio,AR-X,Bv. San Juan N° 24,FARMACITY,Córdoba,Farmacity S.A.,24,157
413.8493,413.85 kilómetros,2,-31.4168,-64.1874,Vélez I.,9-2-444,Supermercado,AR-X,Avenida Velez Sarsfield Dr Dalmacio 132,Disco,CORDOBA,Jumbo Retail Argentina S.A.,9,444
413.866,413.87 kilómetros,3,-31.422938,-64.186857,INDEPENDENCIA 855,10-3-768,Autoservicio,AR-X,Independencia 855,Express,Córdoba,INC S.A.,10,768
413.8684,413.87 kilómetros,2,-31.41943,-64.18704,CBAVSarfield [Velez Sarfield 294],24-2-59,Supermercado,AR-X,Velez Sarfield 294,FARMACITY,Córdoba,Farmacity S.A.,24,59
413.9143,413.91 kilómetros,2,-31.425169,-64.186218,CBAIrigoyen [Hipolito Irigoyen 396],24-2-74,Autoservicio,AR-X,Hipolito Irigoyen 396,FARMACITY,Córdoba,Farmacity S.A.,24,74
413.9241,413.92 kilómetros,3,-31.427629,-64.185973,Ituzaingo 911,10-3-790,Autoservicio,AR-X,Ituzaingo 911,Express,Córdoba,INC S.A.,10,790
413.9326,413.93 kilómetros,3,-31.423028,-64.186152,Proxi independencia 585 (CBA),10-3-720,Autoservicio,AR-X,Independencia 585,Express,Córdoba,INC S.A.,10,720
413.9516,413.95 kilómetros,2,-31.414486,-64.186467,Gral. Paz CBA [Av. General Paz 36/38,24-2-300,Supermercado,AR-X,Av. General Paz 36,FARMACITY,Córdoba,Farmacity S.A.,24,300
413.9838,413.98 kilómetros,2,-31.42895,-64.18527,CBAEstrada [J. M. Estrada 153],24-2-70,Supermercado,AR-X,J. M. Estrada 153,FARMACITY,Córdoba,Farmacity S.A.,24,70
414.0001,414.00 kilómetros,3,-31.397275,-64.187064,BEDOYA 695,10-3-784,Autoservicio,AR-X,Bedoya 695,Express,Córdoba,INC S.A.,10,784
414.0492,414.05 kilómetros,2,-31.4252,-64.1848,Los 33.,9-2-435,Supermercado,AR-X,Ituzaingo 701,Disco,CORDOBA,Jumbo Retail Argentina S.A.,9,435
414.0766,414.08 kilómetros,3,-31.412485,-64.185278,General Paz 240,10-3-642,Autoservicio,AR-X,Gral. Paz 240,Express,Córdoba,INC S.A.,10,642
414.1201,414.12 kilómetros,1,-31.41462,-64.184689,CDBA-CORDOBA-9JUL-MU,2011-1-143,Autoservicio,AR-X,9 De Julio 97,Musimundo,CORDOBA,Electronica Megatone S.A,2011,143
414.1285,414.13 kilómetros,3,-31.423132,-64.184088,Ituzaingo 7514,10-3-770,Autoservicio,AR-X,Ituzaingo 514,Express,Córdoba,INC S.A.,10,770
414.1319,414.13 kilómetros,1,-31.41362,-64.184627,CDBA-CORDOBA-INDARTE PEAT-MU,2011-1-126,Supermercado,AR-X,Jose Rivera Indarte 175,Musimundo,CORDOBA,Electronica Megatone S.A,2011,126
414.1601,414.16 kilómetros,3,-31.426127,-64.183581,Chacabuco 727,10-3-607,Autoservicio,AR-X,Chacabuco 727,Express,Córdoba,INC S.A.,10,607
414.1771,414.18 kilómetros,1,-31.4279,-64.1833,Olmos I.,9-1-434,Supermercado,AR-X,Avenida Olmos Emilio F 78,Vea,CORDOBA,Jumbo Retail Argentina S.A.,9,434
414.1917,414.19 kilómetros,2,-31.450725,-64.181917,EliasYofre CBA [Bulevar Elias Yofre,24-2-285,Supermercado,AR-X,Eliasyofre 965,FARMACITY,Córdoba,Farmacity S.A.,24,285
414.1931,414.19 kilómetros,3,-31.415653,-64.183859,San Martin 625,10-3-769,Autoservicio,AR-X,San Martin 625,Express,Córdoba,INC S.A.,10,769
414.2168,414.22 kilómetros,2,-31.416076,-64.183584,Plaza SM CBA [Rosario de Santa Fe 17/,24-2-266,Supermercado,AR-X,Rosario De Santa Fe 17,FARMACITY,Córdoba,Farmacity S.A.,24,266
414.2423,414.24 kilómetros,1,-31.414595,-64.183407,CDB - Cordoba - PE San Martin ,2009-1-78,Supermercado,AR-X,Peatonal San Martin 175,CETROGAR,Córdoba,CETROGAR  S.A,2009,78
414.2583,414.26 kilómetros,1,-31.4136,-64.1833,BAZAR AVENIDA SA - Cordoba San Martin,2008-1-38,Tradicional,AR-X,San Martin 199,MEGATONE,Cordoba,BAZAR AVENIDA S.A.,2008,38
414.275,414.28 kilómetros,3,-31.417021,-64.182915,Buenos Aires 65,10-3-765,Autoservicio,AR-X,Buenos Aires 65,Express,Córdoba,INC S.A.,10,765
414.2802,414.28 kilómetros,2,-31.41408,-64.18304,CBAColon [Colon 66/68],24-2-58,Supermercado,AR-X,Colon 66/ 68,FARMACITY,Córdoba,Farmacity S.A.,24,58
414.2831,414.28 kilómetros,3,-31.390962,-64.184520,Sarachaga 780/82,10-3-762,Autoservicio,AR-X,Sarachaga 780,Express,Córdoba,INC S.A.,10,762
414.2869,414.29 kilómetros,2,-31.3990501,-64.1839327,Bedoya y Jujuy [Jujuy 1492],24-2-325,Supermercado,AR-X,Jujuy 1492,FARMACITY,Córdoba,Farmacity S.A.,24,325
414.3023,414.30 kilómetros,1,-31.4225,-64.1823,Chacabuco.,9-1-440,Supermercado,AR-X,Boulevard Chacabuco 199,Vea,CORDOBA,Jumbo Retail Argentina S.A.,9,440
414.3175,414.32 kilómetros,2,-31.391660,-64.184111,Fragueiro CBA [Fragueiro 2070],24-2-259,Supermercado,AR-X,Fragueiro 2070,FARMACITY,ALTA CORDOBA (CORDOBA),Farmacity S.A.,24,259
414.3226,414.32 kilómetros,1,-31.39184,-64.184045,CDBA-ALTA CORDOBA-FRAG-MU,2011-1-210,Autoservicio,AR-X,Mariano Fragueiro 2054,Musimundo,CORDOBA,Electronica Megatone S.A,2011,210
414.3272,414.33 kilómetros,2,-31.422445,-64.182041,CBAChacabuco 2 [Chacabuco 79],24-2-79,Autoservicio,AR-X,Chacabuco 79,FARMACITY,Córdoba,Farmacity S.A.,24,79
414.369,414.37 kilómetros,3,-31.389743,-64.183702,M. FRAGUEIRO 2220,10-3-794,Autoservicio,AR-X,M. Fragueiro 2220,Express,Córdoba,INC S.A.,10,794
414.3761,414.38 kilómetros,2,-31.41462,-64.1820,CBAPeatonal [9 de Julio 336],24-2-101,Autoservicio,AR-X,9 De Julio 336,FARMACITY,Córdoba,Farmacity S.A.,24,101
414.4293,414.43 kilómetros,2,-31.3981,-64.1825,Alta Córdoba.,9-2-33,Supermercado,AR-X,J. L. Cabrera 493,Disco,CORDOBA,Jumbo Retail Argentina S.A.,9,33
414.5131,414.51 kilómetros,3,-31.415382,-64.180514,Alvear 126,10-3-641,Autoservicio,AR-X,Alvear 126,Express,Córdoba,INC S.A.,10,641
414.5179,414.52 kilómetros,3,-31.422657,-64.180026,MINI - ILLIA 490,10-3-776,Autoservicio,AR-X,Illia 490,Express,Córdoba,INC S.A.,10,776
414.543,414.54 kilómetros,3,-31.425267,-64.179609,Av. San Lorenzo 480/84,10-3-764,Autoservicio,AR-X,Av. San Lorenzo 480,Express,Córdoba,INC S.A.,10,764
414.6886,414.69 kilómetros,2,-31.4507,-64.1767,Ricchieri.,9-2-460,Supermercado,AR-X,Avenida Ricchieri 3296,Disco,CORDOBA,Jumbo Retail Argentina S.A.,9,460
415.0659,415.07 kilómetros,1,-31.3998,-64.1757,Bulnes,23-1-6286,Autoservicio,AR-X,Bulnes 1108,Axion Energy,Cordoba,Pan American Energy LLC Argentina,23,6286
415.2086,415.21 kilómetros,1,-31.3796,-64.1756,Juan B. Justo.,9-1-114,Supermercado,AR-X,Juan B. Justo 3900,Vea,CORDOBA,Jumbo Retail Argentina S.A.,9,114
415.3173,415.32 kilómetros,1,-31.4007,-64.173,BAZAR AVENIDA SA - Cordoba Suipacha,2008-1-37,Tradicional,AR-X,Luque 1477,MEGATONE,Cordoba,BAZAR AVENIDA S.A.,2008,37
415.5358,415.54 kilómetros,3,-31.413639,-64.169879,LIMA 987,10-3-786,Autoservicio,AR-X,Lima 987,Express,Córdoba,INC S.A.,10,786
415.5512,415.55 kilómetros,1,-31.35946,-64.173522,EASY CORDOBA J.B. JUSTO,3001-1-120,Supermercado,AR-X,Avenida Juan B Justo Y Circunvalacion 0,EASY,Cordoba,EASY S.A.,3001,120
415.5589,415.56 kilómetros,3,-31.415769,-64.169505,25 de Mayo 979,10-3-644,Autoservicio,AR-X,25 De Mayo 979,Express,Córdoba,INC S.A.,10,644
415.5783,415.58 kilómetros,2,-31.415829,-64.169298,Felix Frias CBA [25 de Mayo 998],24-2-313,Supermercado,AR-X,25 De Mayo 998,FARMACITY,Córdoba,Farmacity S.A.,24,313
415.6435,415.64 kilómetros,1,-31.458087,-64.166307,EASY CORDOBA,3001-1-115,Hipermercado,AR-X,"Avenida O Higgins, Barrio Jardin 3853",EASY,Barrio Jardin - Camino San,EASY S.A.,3001,115
415.656,415.66 kilómetros,1,-31.424833,-64.167944,Super Mami 1,1-1-4,Hipermercado,AR-X,Agustin Garzon 1252,Super MAMI,CORDOBA,Dinosaurio S.A.,1,4
415.6755,415.68 kilómetros,1,-31.455534,-64.166095,Córdoba Jardín,10-1-24,Hipermercado,AR-X,Av. O'Higgins 3765,Hipermercado Carrefour,Jardin Espinoza,INC S.A.,10,24
415.6766,415.68 kilómetros,3,-31.380407,-64.170625,Av. Capdevila 264,10-3-807,Autoservicio,AR-X,Av. Capdevila 264,Express,Córdoba,INC S.A.,10,807
415.9428,415.94 kilómetros,1,-31.4137,-64.1656,24 de Septiembre.,9-1-473,Supermercado,AR-X,Avenida 24 De Septiembre 1330,Vea,CORDOBA,Jumbo Retail Argentina S.A.,9,473
415.971,415.97 kilómetros,5,-31.466986,-64.162452,Córdoba Sur,11-5-1010,Hipermercado,AR-X,Av Circunvalacion Este 2557,Walmart SuperCenter,CIUDAD DE CORDOBA NORTE,Wal Mart Argentina S.R.L.,11,1010
416.0145,416.01 kilómetros,1,-31.4034,-64.1655,Buchardo.,9-1-32,Supermercado,AR-X,Buchardo 1654,Vea,CORDOBA,Jumbo Retail Argentina S.A.,9,32
416.1297,416.13 kilómetros,3,-31.412863,-64.163689,24 DE SEPT. 1500,10-3-767,Autoservicio,AR-X,24 De Sept. 1594,Express,Córdoba,INC S.A.,10,767
416.1777,416.18 kilómetros,1,-31.365896,-64.16644,Sucursal 3,8-1-3,Supermercado,AR-X,Carlos Gimenez 35,Mariano Max,CORDOBA,Mariano S.A.,8,3
416.3301,416.33 kilómetros,2,-31.4126,-64.1616,Nuevo Centro.,9-2-451,Supermercado,AR-X,Duarte Quiros Ignacio 1450,Disco,CORDOBA,Jumbo Retail Argentina S.A.,9,451
416.6711,416.67 kilómetros,1,-31.4333,-64.1568,Ruta 9.,9-1-453,Supermercado,AR-X,Avenida Sabattini Dr Amadeo 2180,Vea,CORDOBA,Jumbo Retail Argentina S.A.,9,453
416.7091,416.71 kilómetros,2,-31.433036,-64.156415,Sabattini CBA [Av. Sabattini 2225],24-2-318,Supermercado,AR-X,Av. Sabattini 2225,FARMACITY,Córdoba,Farmacity S.A.,24,318
416.7573,416.76 kilómetros,5,-31.391634,-64.158483,Córdoba Este,11-5-3606,Hipermercado,AR-X,Mauricio Yadarola 1699,Walmart SuperCenter,CIUDAD DE CORDOBA NORTE,Wal Mart Argentina S.R.L.,11,3606
417.4323,417.43 kilómetros,1,-31.443295,-64.148264,Sucursal 1,8-1-1,Supermercado,AR-X,Av. 11 De Septiembre 2765,Mariano Max,CORDOBA,Mariano S.A.,8,1
417.4967,417.50 kilómetros,1,-31.4233,-64.1487,BAZAR AVENIDA SA - Cordoba San Vicente,2008-1-352,Tradicional,AR-X,San Jeronimo 2787,MEGATONE,Cordoba,BAZAR AVENIDA S.A.,2008,352
417.6384,417.64 kilómetros,1,-31.4235,-64.1472,San Vicente.,9-1-432,Supermercado,AR-X,San Jeronimo 2830,Vea,CORDOBA,Jumbo Retail Argentina S.A.,9,432
417.8692,417.87 kilómetros,1,-31.379569,-64.147652,Sucursal 2,8-1-2,Hipermercado,AR-X,Av. Arturo Capdevila 1831,Mariano Max,CORDOBA,Mariano S.A.,8,2
417.9113,417.91 kilómetros,1,-29.27341,-65.062183,CATA-RECREO-BELG-MU,2011-1-223,Autoservicio,AR-K,Avda Belgrano 345,Musimundo,RECREO,Electronica Megatone S.A,2011,223
418.1408,418.14 kilómetros,1,-31.455694,-64.140194,Super Mami 6,1-1-9,Hipermercado,AR-X,Av. De Circunvalacion Agustin Tosco Entre Juan Jufre Y Juan R. Estomba None,Super MAMI,CORDOBA,Dinosaurio S.A.,1,9
418.539,418.54 kilómetros,1,-30.42509,-64.35318,CDBA-DEAN FUNES-ITALIA-MU,2011-1-219,Autoservicio,AR-X,Italia 26,Musimundo,DEAN FUNES,Electronica Megatone S.A,2011,219
419.0951,419.10 kilómetros,1,-31.388667,-64.13413,CDBA-CORDOBA-ALTOLAGUIRRE-MU,2011-1-315,Supermercado,AR-X,Altolaguirre 1693,Musimundo,CORDOBA,Electronica Megatone S.A,2011,315
419.174,419.17 kilómetros,1,-31.439,-64.1302,El Arco,23-1-6255,Autoservicio,AR-X,Av. A Sabattini 4720,Axion Energy,Cordoba,Pan American Energy LLC Argentina,23,6255
419.1829,419.18 kilómetros,3,-31.382931,-64.133611,J de Altolaguirre 2222,10-3-806,Autoservicio,AR-X,J De Altolaguirre 2222,Express,Córdoba,INC S.A.,10,806
424.7317,424.73 kilómetros,1,-32.1719707,-64.1146506,Rio III,2005-1-40,Supermercado,AR-X,Libertad 256,Naldo,Rio Tercero,Naldo Lombardi SA,2005,40
424.8248,424.82 kilómetros,1,-32.171240,-64.113529,CDB - Rio Tercero - Libertad ,2009-1-52,Supermercado,AR-X,Libertad 349,CETROGAR,Rio Tercero,CETROGAR  S.A,2009,52
424.9443,424.94 kilómetros,1,-32.1721,-64.1124,BAZAR AVENIDA SA - Rio Tercero,2008-1-8,Tradicional,AR-X,Libertad 240,MEGATONE,Rio Tercero,BAZAR AVENIDA S.A.,2008,8
425.0742,425.07 kilómetros,1,-32.1744,-64.11141,CDBA-RIO TERCERO-VELEZ S-MU,2011-1-133,Autoservicio,AR-X,Velez Sarsfield 39,Musimundo,RIO TERCERO,Electronica Megatone S.A,2011,133
425.2557,425.26 kilómetros,1,-32.1740,-64.1094,Rio Tercero II.,9-1-690,Supermercado,AR-X,Avenida Acuña Modesto 50,Vea,RIO TERCERO,Jumbo Retail Argentina S.A.,9,690
427.7373,427.74 kilómetros,1,-30.977964,-64.097221,CDBA-JESUS MARIA-COLON-MU,2011-1-279,Supermercado,AR-X,Colon 32,Musimundo,JESUS MARIA,Electronica Megatone S.A,2011,279
427.8081,427.81 kilómetros,2,-30.9804,-64.0960,Jesús María.,9-2-456,Supermercado,AR-X,Olmos Ing 33,Disco,JESUS MARIA,Jumbo Retail Argentina S.A.,9,456
427.8182,427.82 kilómetros,1,-30.9814,-64.0957,BAZAR AVENIDA SA - Jesus Maria,2008-1-27,Tradicional,AR-X,Tucuman 400,MEGATONE,Jesus Maria,BAZAR AVENIDA S.A.,2008,27
427.9059,427.91 kilómetros,1,-30.976321,-64.095755,CDB - Jesus Maria - Castulo Peña ,2009-1-55,Supermercado,AR-X,Castulo Pena 456,CETROGAR,Jesus Maria,CETROGAR  S.A,2009,55
428.1732,428.17 kilómetros,1,-30.978745,-64.092456,Sucursal 4,8-1-4,Supermercado,AR-X,Italia 363,Mariano Max,jesus maria,Mariano S.A.,8,4
428.9609,428.96 kilómetros,1,-30.977255,-64.084407,Sucursal 9,8-1-9,Hipermercado,AR-X,Ruta Nac. Nº 9 Esquina Calle Corrientes 0,Mariano Max,jesus maria,Mariano S.A.,8,9
429.0789,429.08 kilómetros,1,-33.125673,-64.384353,EASY RIO IV,3001-1-173,Supermercado,AR-X,Ruta A005 Y Avenida Presidente Peron 0,EASY,RIO IV,EASY S.A.,3001,173
429.4865,429.49 kilómetros,5,-33.131160,-64.382400,Rio IV,11-5-1002,Hipermercado,AR-X,Juan B Justo 2052,Walmart SuperCenter,RIO CUARTO,Wal Mart Argentina S.R.L.,11,1002
431.0329,431.03 kilómetros,1,-28.4650,-65.8012,Catamarca IV,9-1-550,Supermercado,AR-K,Av. Felipe Figueroa Esq. Juan De Sosa Y Leon 0,Vea,SAN FDO DEL VALLE DE CATAMARCA,Jumbo Retail Argentina S.A.,9,550
431.3278,431.33 kilómetros,1,-28.477093,-65.778283,Catamarca,10-1-178,Supermercado,AR-K,Hipólito Yrigoyen 1283,Hipermercado Carrefour,San Fernando del Valle de Catamarca,INC S.A.,10,178
431.3961,431.40 kilómetros,1,-33.115554,-64.352366,CDBA-RIO CUARTO-RIO SH-MU,2011-1-147,Supermercado,AR-X,Eliseo Sanchez 200 (L1068) None,Musimundo,RIO CUARTO,Electronica Megatone S.A,2011,147
431.5417,431.54 kilómetros,1,-33.1160,-64.3509,Río Cuarto.,9-1-113,Supermercado,AR-X,Granderos 200,Vea,RIO CUARTO,Jumbo Retail Argentina S.A.,9,113
431.6762,431.68 kilómetros,1,-28.4757,-65.7745,Catamarca III.,9-1-505,Supermercado,AR-K,Avenida Guemes Gral Martin Miguel De 856,Vea,SAN FDO DEL VALLE DE CATAMARCA,Jumbo Retail Argentina S.A.,9,505
431.7011,431.70 kilómetros,2,-28.472753,-65.778434,Catamarca II,10-2-132,Supermercado,AR-K,Rivadavia 945,Market,San Fernando del Valle de Catamarca,INC S.A.,10,132
431.7285,431.73 kilómetros,1,-28.4726,-65.7782,Catamarca Peatonal.,9-1-769,Supermercado,AR-K,Rivadavia 954,Vea,SAN FDO DEL VALLE DE CATAMARCA,Jumbo Retail Argentina S.A.,9,769
431.7438,431.74 kilómetros,1,-28.47224,-65.778476,CATA-CATAMARCA-BOTELLO PEAT-MU,2011-1-211,Autoservicio,AR-K,Mota Botello 595,Musimundo,CATAMARCA,Electronica Megatone S.A,2011,211
431.7949,431.79 kilómetros,1,-28.4717320,-65.7783696,Catamarca,2002-1-113,Tradicional,AR-K,Rivadavia 869,Fravega,Catamarca,FRAVEGA S A C I E I,2002,113
431.9142,431.91 kilómetros,2,-33.11814,-64.34765,CBA España [Av. España 116],24-2-178,Supermercado,AR-X,Av. España 116,FARMACITY,RIO CUARTO,Farmacity S.A.,24,178
432.0101,432.01 kilómetros,1,-33.117905,-64.346420,PASEO RIBERA SHOPPING -  RIO IV,2003-1-7420,Tradicional,AR-X,Sobremonte 80,Samsung,RIO CUARTO,GMRA S.A.,2003,7420
432.0252,432.03 kilómetros,1,-33.1264,-64.3505,BAZAR AVENIDA SA - Rio Cuarto,2008-1-7,Tradicional,AR-X,General Paz 964,MEGATONE,Rio Cuarto,BAZAR AVENIDA S.A.,2008,7
432.0255,432.03 kilómetros,1,-33.1259857,-64.3502879,Rio IV,2005-1-35,Supermercado,AR-X,General Paz 931,Naldo,Rio Cuarto,Naldo Lombardi SA,2005,35
432.0355,432.04 kilómetros,2,-33.1208754,-64.3476104,CBASanMartin [San Martin 302],24-2-118,Autoservicio,AR-X,San Martin 302,FARMACITY,RIO CUARTO,Farmacity S.A.,24,118
432.0699,432.07 kilómetros,2,-33.12349,-64.34852,CBA SMONTE [Sobremonte 725],24-2-139,Supermercado,AR-X,Sobremonte 725,FARMACITY,RIO CUARTO,Farmacity S.A.,24,139
432.1043,432.10 kilómetros,2,-33.125271,-64.349014,Río Cuarto,10-2-119,Supermercado,AR-X,Sobremonte 902,Market,Río Cuarto,INC S.A.,10,119
432.1668,432.17 kilómetros,1,-28.4681,-65.7775,BAZAR AVENIDA SA - Catamarca,2008-1-29,Tradicional,AR-K,Republica 663,MEGATONE,Catamarca,BAZAR AVENIDA S.A.,2008,29
432.1823,432.18 kilómetros,1,-28.4684909,-65.7766606,Catamarca,2005-1-75,Supermercado,AR-K,Salta 688,Naldo,"San Fdo.Del Valle De Catamarca ,Est.",Naldo Lombardi SA,2005,75
432.1892,432.19 kilómetros,1,-28.468141,-65.777063,CAT - Catamarca - Republica,2009-1-15,Supermercado,AR-K,Republica Esq. Salta None,CETROGAR,Catamarca,CETROGAR  S.A,2009,15
432.1933,432.19 kilómetros,1,-33.12407,-64.347379,CDBA-RIO CUARTO-GRAL PAZ-MU,2011-1-129,Autoservicio,AR-X,Gral Paz 741,Musimundo,RIO CUARTO,Electronica Megatone S.A,2011,129
432.1966,432.20 kilómetros,1,-28.46804,-65.777088,CATA-CATAMARCA-REPUBLICA-MU,2011-1-140,Supermercado,AR-K,Republica 700,Musimundo,CATAMARCA,Electronica Megatone S.A,2011,140
432.2377,432.24 kilómetros,1,-33.1105,-64.3401,Vea 29 - M.T. de Alvear Cba..,9-1-195,Supermercado,AR-X,Avenida Alvear Presidente Marcelo Torcuato De 350,Vea,RIO CUARTO,Jumbo Retail Argentina S.A.,9,195
432.2581,432.26 kilómetros,1,-33.1383,-64.3538,Rio Cuarto.,9-1-479,Supermercado,AR-X,Avenida Sabattini Dr Amadeo 2136,Vea,RIO CUARTO,Jumbo Retail Argentina S.A.,9,479
433.1343,433.13 kilómetros,1,-28.4603,-65.7728,Catamarca.,9-1-243,Supermercado,AR-K,Avenida Belgrano Manuel 960,Vea,SAN FDO DEL VALLE DE CATAMARCA,Jumbo Retail Argentina S.A.,9,243
433.5746,433.57 kilómetros,2,-28.467222,-65.755218,Catamarca,11-2-1026,Hipermercado,AR-K,Av Villafañe 2420,Changomas,SAN FERNANDO DEL VALLE DE CATAMARCA,Wal Mart Argentina S.R.L.,11,1026
437.4526,437.45 kilómetros,1,-28.4480,-65.7187,Patio Palmera,9-1-242,Supermercado,AR-K,Avenida Castillo Pres Ramon 254,Vea,VILLA DOLORES,Jumbo Retail Argentina S.A.,9,242
439.5858,439.59 kilómetros,1,-31.6534,-63.9111,BAZAR AVENIDA SA - Rio Segundo,2008-1-22,Tradicional,AR-X,Leandro N. Alem 930,MEGATONE,Rio Segundo,BAZAR AVENIDA S.A.,2008,22
439.7149,439.71 kilómetros,1,-31.65286,-63.909738,CDBA-RIO SEGUNDO-SARMIENTO-MU,2011-1-208,Autoservicio,AR-X,Bv Domingo Faustino Sarmiento 930,Musimundo,RIO SEGUNDO,Electronica Megatone S.A,2011,208
441.5726,441.57 kilómetros,1,-33.0095327,-64.1854750,Gualeguaychu,2002-1-134,Tradicional,AR-E,25 De Mayo 989,Fravega,Gualeguaychu,FRAVEGA S A C I E I,2002,134
447.2549,447.25 kilómetros,1,-35.473228,-69.584557,MDZA-MALARGUE-FRAY-MU,2011-1-176,Autoservicio,AR-M,Fray Luis Beltran 91,Musimundo,MALARGUE,Electronica Megatone S.A,2011,176
447.611,447.61 kilómetros,1,-35.4752,-69.5916,Malargüe,9-1-914,Supermercado,AR-M,Calle Av.Roca S/N Entre Villa Del Milagro Y Calle 0,Vea,MALARGUE,Jumbo Retail Argentina S.A.,9,914
455.4027,455.40 kilómetros,1,-27.64778,-67.02548,CATA-BELEN-SM-MU,2011-1-204,Autoservicio,AR-K,San Martin 110,Musimundo,BELEN,Electronica Megatone S.A,2011,204
459.3549,459.35 kilómetros,1,-28.642593,-65.130548,SGES-FRIAS-SM-MU,2011-1-242,Autoservicio,AR-G,Granaderos De San Martin 425,Musimundo,FRIAS,Electronica Megatone S.A,2011,242
462.7107,462.71 kilómetros,1,-31.9151891,-63.6792919,1515 - ONCATIVO,15-1-1515,Autoservicio,AR-X,Cl Belgrano 941,Supermercados DIA,CORDOBA,DIA Argentina S.A,15,1515
464.5273,464.53 kilómetros,1,-32.426197,-63.738309,1513 - HERNANDO,15-1-1513,Autoservicio,AR-X,Bv Rivadavia 300,Supermercados DIA,CORDOBA,DIA Argentina S.A,15,1513
488.5355,488.54 kilómetros,1,-27.58236,-66.315165,CATA-ANDALGALA-SM-MU,2011-1-212,Autoservicio,AR-K,Avda Gral Jose De San Martin 705,Musimundo,ANDALGALA,Electronica Megatone S.A,2011,212
508.9282,508.93 kilómetros,1,-32.4086,-63.2565,Villa María II.,9-1-232,Supermercado,AR-X,Boulevard Velez Sarsfield 411,Vea,VILLA MARIA,Jumbo Retail Argentina S.A.,9,232
509.6553,509.66 kilómetros,1,-32.4078411,-63.2485416,1060 - VILLA MARIA,15-1-1060,Autoservicio,AR-X,Leandro N. Alem 429,Supermercados DIA,CORDOBA,DIA Argentina S.A,15,1060
510.0281,510.03 kilómetros,1,-32.4117,-63.2453,BAZAR AVENIDA SA - Villa Maria,2008-1-6,Tradicional,AR-X,San Martin 49,MEGATONE,Villa Maria,BAZAR AVENIDA S.A.,2008,6
510.1212,510.12 kilómetros,1,-32.4115858,-63.2442781,Villa Maria,2005-1-36,Supermercado,AR-X,Corrientes 1163,Naldo,Villa Maria,Naldo Lombardi SA,2005,36
510.2257,510.23 kilómetros,1,-32.41195,-63.243227,CDBA-VILLA MARIA-SM-MU,2011-1-174,Autoservicio,AR-X,Gral Jose De San Martin 68,Musimundo,VILLA MARIA,Electronica Megatone S.A,2011,174
510.3722,510.37 kilómetros,2,-32.423605,-63.243978,Villa Nueva,11-2-1056,Hipermercado,AR-X,Av Carranza E/ Lima Y Costanera 980,Changomas,VILLA NUEVA,Wal Mart Argentina S.R.L.,11,1056
510.478,510.48 kilómetros,1,-32.437869,-63.245734,CDB - Villa Maria - San Martin ,2009-1-82,Supermercado,AR-X,San Martin 99,CETROGAR,Villa Maria,CETROGAR  S.A,2009,82
510.5232,510.52 kilómetros,2,-32.41123,-63.23989,CBAVMaria [25 de Mayo 156/160],24-2-175,Autoservicio,AR-X,25 De Mayo 156,FARMACITY,VILLA MARIA (DPTO. GENERAL SAN MART,Farmacity S.A.,24,175
520.8798,520.88 kilómetros,1,-31.420260,-63.063750,ARROYITO,2-1-351,Supermercado,AR-X,Espacio Cultural Lafaye 640,La Anonima,Arroyito,S.A. Importadora y Exportadora de la Patagonia,2,351
521.2004,521.20 kilómetros,1,-27.5889,-65.6202,Stop Alberdi.,9-1-906,Supermercado,AR-T,Rivadavia 732,Vea,JUAN BAUTISTA ALBERDI,Jumbo Retail Argentina S.A.,9,906
522.9856,522.99 kilómetros,1,-31.4229783,-63.0415044,Sucursal 10,8-1-10,Hipermercado,AR-X,Juan Jose De Urquiza N°430 (Arroyito) 0,Mariano Max,ARROYITO,Mariano S.A.,8,10
535.2224,535.22 kilómetros,1,-33.4179995,-63.2992617,La Carlota,2005-1-42,Autoservicio,AR-X,Boulevard Velez Sarsfield 1147,Naldo,La Carlota,Naldo Lombardi SA,2005,42
544.7678,544.77 kilómetros,1,-27.3503,-65.6008,Stop Concepción.,9-1-904,Supermercado,AR-T,Rivadavia 36,Vea,CONCEPCION,Jumbo Retail Argentina S.A.,9,904
544.9831,544.98 kilómetros,1,-27.349984,-65.597161,TUC - Concepcion - S Martin,2009-1-19,Supermercado,AR-T,San Martin 1363,CETROGAR,Concepcion,CETROGAR  S.A,2009,19
545.353,545.35 kilómetros,2,-27.350410,-65.589111,Concepción,11-2-1088,Hipermercado,AR-T,Avenida Güemes Esq. Francia None,Changomas,CONCEPCION,Wal Mart Argentina S.R.L.,11,1088
545.7298,545.73 kilómetros,1,-27.345999,-65.58995,TUCU-CONCEPCION-SM-MU,2011-1-243,Autoservicio,AR-T,San Martin 1235,Musimundo,CONCEPCION,Electronica Megatone S.A,2011,243
552.7982,552.80 kilómetros,1,-31.874956,-62.726591,CDB - Las Varillas - Italia ,2009-1-47,Supermercado,AR-X,Italia 35,CETROGAR,Las Varillas,CETROGAR  S.A,2009,47
561.5799,561.58 kilómetros,1,-34.124950,-63.387610,LABOULAYE,2-1-119,Supermercado,AR-X,España 88,La Anonima,Laboulaye,S.A. Importadora y Exportadora de la Patagonia,2,119
565.2982,565.30 kilómetros,1,-32.6190,-62.6938,Bellville.,9-1-478,Supermercado,AR-X,Boulevard Colon 850,Vea,BELL VILLE,Jumbo Retail Argentina S.A.,9,478
565.5762,565.58 kilómetros,1,-32.631092,-62.693506,CDB - Bell Ville - Pio Angulo ,2009-1-49,Supermercado,AR-X,Pio Angulo 501,CETROGAR,Bell Ville,CETROGAR  S.A,2009,49
567.0866,567.09 kilómetros,1,-27.1699,-65.4999,Stop Monteros.,9-1-903,Supermercado,AR-T,Alberdi 0,Vea,MONTEROS VIEJO,Jumbo Retail Argentina S.A.,9,903
567.3519,567.35 kilómetros,1,-27.167752,-65.49871,TUCU-MONTEROS-COLON-MU,2011-1-235,Autoservicio,AR-T,Colon 163,Musimundo,MONTEROS,Electronica Megatone S.A,2011,235
572.7877,572.79 kilómetros,1,-27.498682,-64.856596,SGES-TERMAS RIO HONDO-RIVAD-MU,2011-1-255,Autoservicio,AR-G,Rivadavia 637,Musimundo,TERMAS DE RIO HONDO,Electronica Megatone S.A,2011,255
582.9073,582.91 kilómetros,1,-27.056055,-65.402168,TUC - Famailla - Av S Martin  ,2009-1-70,Supermercado,AR-T,Av. San Martin 236,CETROGAR,Famailla,CETROGAR  S.A,2009,70
583.2048,583.20 kilómetros,2,-27.828130,-64.270004,Santiago Sur,11-2-1080,Hipermercado,AR-G,Avenida Leopoldo Lugones Esq. Pedro Cont None,Changomas,SANTIAGO DEL ESTERO,Wal Mart Argentina S.R.L.,11,1080
586.0767,586.08 kilómetros,2,-27.809677,-64.249649,Santiago,11-2-1012,Hipermercado,AR-G,Av Belgrano Sur 2663,Changomas,SANTIAGO DEL ESTERO,Wal Mart Argentina S.R.L.,11,1012
586.9559,586.96 kilómetros,2,-27.790376,-64.259279,Santiago del Estero 2 [Belgrano 681/683/685/687],24-2-277,Supermercado,AR-G,Belgrano 681,FARMACITY,Santiago Del Estero,Farmacity S.A.,24,277
586.9662,586.97 kilómetros,1,-27.7886,-64.2612,Sgo.del Estero II,9-1-887,Supermercado,AR-G,Av. Belgrano Sur N° 433/459 433,Vea,SANTIAGO DEL ESTERO,Jumbo Retail Argentina S.A.,9,887
586.9882,586.99 kilómetros,1,-27.787285,-64.262415,SGES-SGO DEL ESTERO-PELLEG-MU,2011-1-232,Supermercado,AR-G,Pres Carlos Pellegrini 1,Musimundo,SANTIAGO DEL ESTERO,Electronica Megatone S.A,2011,232
587.1031,587.10 kilómetros,2,-27.788285,-64.259571,Santiago del Estero 3 [Avellaneda119],24-2-305,Supermercado,AR-G,Avellaneda 119,FARMACITY,2 Arboles,Farmacity S.A.,24,305
587.1253,587.13 kilómetros,1,-27.7877460,-64.2598770,Santiago Del Estero,2002-1-168,Tradicional,AR-G,Peatonal Tucuman 263,Fravega,Santiago Del Estero,FRAVEGA S A C I E I,2002,168
587.2684,587.27 kilómetros,1,-27.784193,-64.261937,SDE - Santiago Del Estero - PE Tucuman,2009-1-23,Supermercado,AR-G,Peatonal Tucuman 249,CETROGAR,Santiago del Estero,CETROGAR  S.A,2009,23
587.2694,587.27 kilómetros,2,-27.784205,-64.261909,Santiago del Estero [Tucuman 244],24-2-173,Supermercado,AR-G,Tucuman 244,FARMACITY,Santiago Del Estero,Farmacity S.A.,24,173
587.2703,587.27 kilómetros,1,-27.7848,-64.2612,BAZAR AVENIDA SA - Santiago del Estero,2008-1-608,Tradicional,AR-G,Peatonal Tucuman 175,MEGATONE,Santiago Del Estero,BAZAR AVENIDA S.A.,2008,608
587.2936,587.29 kilómetros,1,-27.7837300,-64.2621110,Santiago,2005-1-73,Supermercado,AR-G,Peatonal Tucumán 283,Naldo,Santiago Del Estero,Naldo Lombardi SA,2005,73
587.6022,587.60 kilómetros,2,-27.783948,-64.257353,Santiago del Estero 4 [Av. Roca S/N],24-2-319,Supermercado,AR-G,Av.Roca 537,FARMACITY,Bandera Bajada,Farmacity S.A.,24,319
587.9997,588.00 kilómetros,1,-27.7786,-64.2578,Santiago.,9-1-13,Hipermercado,AR-G,Av. Rivadavia Esq. Ejercito Argentino 0,Vea,SANTIAGO DEL ESTERO,Jumbo Retail Argentina S.A.,9,13
588.0151,588.02 kilómetros,1,-27.778397,-64.257813,EASY SANTIAGO DEL ESTERO,3001-1-170,Supermercado,AR-G,Avenida Rivadavia Y Ejercito Argentino 0,EASY,SANTIAGO DEL ESTERO,EASY S.A.,3001,170
592.8874,592.89 kilómetros,1,-27.7298,-64.2436,La Banda,9-1-730,Supermercado,AR-G,25 De Mayo Y Chacabuco 0,Vea,SANTIAGO DEL ESTERO,Jumbo Retail Argentina S.A.,9,730
593.0323,593.03 kilómetros,2,-27.7310039,-64.2400559,Santiago del Estero 5 [Leandro N. Alem 145],24-2-326,Supermercado,AR-G,Leandro N. Alem 145,FARMACITY,Abrita Grande,Farmacity S.A.,24,326
593.2376,593.24 kilómetros,1,-27.729907,-64.238340,SDE - La Banda - L N Alem,2009-1-20,Supermercado,AR-G,Leandro N. Alem 321,CETROGAR,La Banda,CETROGAR  S.A,2009,20
593.2881,593.29 kilómetros,1,-27.729696,-64.23785,SGES-LA BANDA-ALEM-MU,2011-1-252,Autoservicio,AR-G,Leandro Niceforo Alem 385,Musimundo,LA BANDA,Electronica Megatone S.A,2011,252
602.1228,602.12 kilómetros,1,-27.9254,-63.8957,BAZAR AVENIDA SA - Fernandez,2008-1-439,Tradicional,AR-G,Jose Fernandez Y Libertad 0,MEGATONE,Fernandez,BAZAR AVENIDA S.A.,2008,439
607.4404,607.44 kilómetros,1,-32.63844,-62.24369,LEONES,19-1-31039,Autoservicio,AR-X,Aut Rosario-Cordoba Km 478 Asc 0,FULL,Leones - M. Juarez,Operadora de Estaciones de Servicios S.A.,19,31039
610.171,610.17 kilómetros,1,-31.42452,-62.12753,SAN FRANCISCO,19-1-02052,Autoservicio,AR-X,Ruta Nacional 19 Km (Asc.) 0,FULL,S.FRANCISCO,Operadora de Estaciones de Servicios S.A.,19,02052
610.2543,610.25 kilómetros,2,-26.866111,-65.221107,Tucumán,11-2-1082,Supermercado,AR-T,Avenida Jujuy Y Avenida Democracia None,Changomas,SAN MIGUEL DE TUCUMAN,Wal Mart Argentina S.R.L.,11,1082
611.3588,611.36 kilómetros,1,-26.852726,-65.224345,Comodin 26,6-1-26,Supermercado,AR-T,Avda. Alem Esq. Lavaissé 1796,Supermercados Comodin,San Miguel de Tucumán,Alberdi S.A.,6,26
611.6969,611.70 kilómetros,2,-26.812900,-65.292314,Yerba Buena,10-2-601,Supermercado,AR-T,Av. Aconquija 1591,Market,Yerba Buena,INC S.A.,10,601
611.8512,611.85 kilómetros,1,-26.834832,-65.247965,Comodin 25,6-1-25,Hipermercado,AR-T,Avda. Gral. Rocal 3030,Supermercados Comodin,San Miguel de Tucumán,Alberdi S.A.,6,25
611.9975,612.00 kilómetros,1,-26.81517,-65.28205,YERBA BUENA,19-1-02499,Autoservicio,AR-T,Av.Aconquija 1784 0,FULL,Tucuman,Operadora de Estaciones de Servicios S.A.,19,02499
612.0006,612.00 kilómetros,1,-26.8149,-65.2825,Yerba Buena.,9-1-70,Supermercado,AR-T,Av. Aconquija Y L.L. De La Vega 0,Vea,YERBA BUENA,Jumbo Retail Argentina S.A.,9,70
612.1112,612.11 kilómetros,1,-26.822079,-65.266761,EASY TUCUMAN,3001-1-127,Hipermercado,AR-T,Fermin Cariola 42,EASY,Escuela Congresales Tucuman,EASY S.A.,3001,127
612.1964,612.20 kilómetros,1,-26.837754,-65.23577,TUCU-SAN MIGUEL-NESTOR K-MU,2011-1-231,Autoservicio,AR-T,Avda Nestor Kirchner 2310,Musimundo,SAN MIGUEL DE TUCUMAN,Electronica Megatone S.A,2011,231
612.3859,612.39 kilómetros,3,-26.8220,-65.2615,Jumbo Tucuman,9-3-5227,Hipermercado,AR-T,Cariola Fermin 42,Jumbo,YERBA BUENA,Jumbo Retail Argentina S.A.,9,5227
612.5565,612.56 kilómetros,1,-26.8346,-65.2346,Colón y Roca,9-1-727,Supermercado,AR-T,Colón Y Roca 650,Vea,SAN MIGUEL DE TUCUMAN,Jumbo Retail Argentina S.A.,9,727
612.6669,612.67 kilómetros,1,-26.8398,-65.2228,Roca.,9-1-134,Supermercado,AR-T,Avenida Roca Pres Gral Julio Argentino 759,Vea,SAN MIGUEL DE TUCUMAN,Jumbo Retail Argentina S.A.,9,134
613.0557,613.06 kilómetros,1,-26.8328,-65.2282,Tucumán VI.,9-1-660,Supermercado,AR-T,Avenida Alem Leandro Niceforo 240,Vea,SAN MIGUEL DE TUCUMAN,Jumbo Retail Argentina S.A.,9,660
613.1149,613.11 kilómetros,1,-26.82734,-65.23720,MATE DE LUNA I,19-1-02362,Autoservicio,AR-T,Av.Mate De Luna Y Colon 0,FULL,TUCUMAN,Operadora de Estaciones de Servicios S.A.,19,02362
613.3268,613.33 kilómetros,1,-26.8234,-65.2404,Mate de Luna,9-1-73,Supermercado,AR-T,Avenida Mate De Luna Fernando 2852,Vea,SAN MIGUEL DE TUCUMAN,Jumbo Retail Argentina S.A.,9,73
613.3683,613.37 kilómetros,1,-26.82759,-65.23178,MATE DE LUNA II,19-1-02291,Autoservicio,AR-T,Av.Mate De Luna Y Colon 0,FULL,TUCUMAN,Operadora de Estaciones de Servicios S.A.,19,02291
613.5628,613.56 kilómetros,1,-26.8373,-65.2100,Terminal.,9-1-71,Supermercado,AR-T,Av. Brigado Teran 200 L.S. 1 0,Vea,SAN MIGUEL DE TUCUMAN,Jumbo Retail Argentina S.A.,9,71
613.6349,613.63 kilómetros,1,-31.42845,-62.091019,CDBA-SAN FRANCISCO-25MAY-MU,2011-1-183,Autoservicio,AR-X,Avda 25 De Mayo 2256,Musimundo,SAN FRANCISCO,Electronica Megatone S.A,2011,183
613.6363,613.64 kilómetros,1,-31.428483,-62.091002,CDB - San Francisco - Bv 25 de Mayo ,2009-1-73,Supermercado,AR-X,Av. 25 De Mayo 2216,CETROGAR,San Francisco,CETROGAR  S.A,2009,73
613.6855,613.69 kilómetros,1,-26.81762,-65.24417,TUCUMAN BULNES,19-1-03334,Autoservicio,AR-T,Bulnes Y Belgrano 0,FULL,Tucuman,Operadora de Estaciones de Servicios S.A.,19,03334
613.7308,613.73 kilómetros,1,-31.4287,-62.09,BAZAR AVENIDA SA - San Francisco,2008-1-5,Tradicional,AR-X,Bv. 25 De Mayo 2166,MEGATONE,San Francisco,BAZAR AVENIDA S.A.,2008,5
613.7453,613.75 kilómetros,2,-31.428696,-62.089848,CBA SanFrancisco [Boulevard 25 de Mayo 2119],24-2-298,Supermercado,AR-X,Boulevard 25 De Mayo 2119,FARMACITY,Córdoba,Farmacity S.A.,24,298
613.746,613.75 kilómetros,1,-26.83612,-65.20862,TUCUMAN,19-1-02446,Autoservicio,AR-T,B. Araoz Y W.Pose 0,FULL,S.M. DE TUCUMAN,Operadora de Estaciones de Servicios S.A.,19,02446
613.7875,613.79 kilómetros,1,-31.4288,-62.0894,San Francisco.,9-1-464,Supermercado,AR-X,Avenida 25 De Mayo 2127,Vea,SAN FRANCISCO,Jumbo Retail Argentina S.A.,9,464
613.8037,613.80 kilómetros,1,-26.8306,-65.2177,Tucumán V.,9-1-659,Supermercado,AR-T,Cordoba Provincia De 649,Vea,SAN MIGUEL DE TUCUMAN,Jumbo Retail Argentina S.A.,9,659
614.1159,614.12 kilómetros,5,-26.804676,-65.260010,Tucumán,11-5-1020,Hipermercado,AR-T,Av Camino Del Peru 950,Walmart SuperCenter,SAN MIGUEL DE TUCUMAN,Wal Mart Argentina S.R.L.,11,1020
614.2797,614.28 kilómetros,1,-26.8094,-65.2479,America y Belgrano Tucuman,9-1-72,Supermercado,AR-T,Av. De Las Américas Esq. Belgrano 0,Vea,SAN MIGUEL DE TUCUMAN,Jumbo Retail Argentina S.A.,9,72
614.3349,614.33 kilómetros,1,-26.8255,-65.2168,Sarmiento.,9-1-125,Supermercado,AR-T,Av. Sarmiento Domiengo Faustino 750,Vea,SAN MIGUEL DE TUCUMAN,Jumbo Retail Argentina S.A.,9,125
614.3547,614.35 kilómetros,2,-26.830652,-65.206887,Tucumán I,10-2-176,Supermercado,AR-T,24 De Septiembre 653,Market,San Miguel de Tucumán,INC S.A.,10,176
614.403,614.40 kilómetros,1,-26.8105456,-65.2433294,Comodin 27,6-1-27,Hipermercado,AR-T,Avda. Belgrano 3300,Supermercados Comodin,San Miguel de Tucuman,Alberdi S.A.,6,27
614.452,614.45 kilómetros,1,-26.83,-65.2062,BAZAR AVENIDA SA - Tucuman 2,2008-1-430,Tradicional,AR-T,Idelfonzo Munecas 48,MEGATONE,San Miguel De Tucuman,BAZAR AVENIDA S.A.,2008,430
614.6029,614.60 kilómetros,1,-26.8276,-65.2077,BAZAR AVENIDA SA - Tucuman 1,2008-1-418,Tradicional,AR-T,Mendoza 746,MEGATONE,San Miguel De Tucuman,BAZAR AVENIDA S.A.,2008,418
614.6206,614.62 kilómetros,2,-26.828409,-65.205862,DIGGIT TUCUMAN,2003-2-7900,Tradicional,AR-T,Muñecas 150,DIGGIT,SAN MIGUEL DE TUCUMAN,GMRA S.A.,2003,7900
614.6414,614.64 kilómetros,2,-26.830278,-65.202010,Tucumán II,10-2-177,Supermercado,AR-T,San Martín 344,Market,San Miguel de Tucumán,INC S.A.,10,177
614.9292,614.93 kilómetros,1,-26.826312,-65.203737,TUCU-SAN MIGUEL-25MAY-MU,2011-1-253,Autoservicio,AR-T,25 De Mayo De 1810 346,Musimundo,SAN MIGUEL DE TUCUMAN,Electronica Megatone S.A,2011,253
614.9534,614.95 kilómetros,1,-26.826240,-65.203401,TUC - Tucuman - 25 de Mayo,2009-1-58,Supermercado,AR-T,25 De Mayo 355,CETROGAR,San Miguel,CETROGAR  S.A,2009,58
615.2535,615.25 kilómetros,1,-26.816501,-65.215582,TUCU-SAN MIGUEL-MITRE-MU,2011-1-239,Autoservicio,AR-T,Avda Bartolome Mitre 876,Musimundo,SAN MIGUEL DE TUCUMAN,Electronica Megatone S.A,2011,239
615.6177,615.62 kilómetros,2,-26.837785,-65.169380,Rio Sali,11-2-1033,Supermercado,AR-T,Guatemala Y Av. San Martin None,Changomas,BANDA DEL RIO SALI,Wal Mart Argentina S.R.L.,11,1033
615.7451,615.75 kilómetros,1,-26.814605,-65.209515,Tucumán III,10-1-46,Hipermercado,AR-T,Av. Catamarca 1116,Hipermercado Carrefour,San Miguel de Tucumán,INC S.A.,10,46
615.8093,615.81 kilómetros,1,-26.841087,-65.159688,TUC - Banda Rio Sali - Av G M de Jesus Diaz ,2009-1-68,Supermercado,AR-T,Avenida Gregorio Jesus Diaz 217,CETROGAR,Banda de Rio Sali,CETROGAR  S.A,2009,68
616.313,616.31 kilómetros,1,-26.817319,-65.193457,Comodin 24,6-1-24,Hipermercado,AR-T,Avda. Juan B. Justo 1149,Supermercados Comodin,San Miguel de Tucumán,Alberdi S.A.,6,24
616.6332,616.63 kilómetros,1,-26.8229,-65.1770,Gobernador del Campo,9-1-958,Supermercado,AR-T,Avenida Del Campo Gdor 1150,Vea,SAN MIGUEL DE TUCUMAN,Jumbo Retail Argentina S.A.,9,958
616.9218,616.92 kilómetros,2,-26.794185,-65.224521,Tucuman II,11-2-1106,Hipermercado,AR-T,Avenida Ejército Del Norte 2324,Changomas,SAN MIGUEL DE TUCUMAN,Wal Mart Argentina S.R.L.,11,1106
617.2939,617.29 kilómetros,1,-35.250090,-63.600530,INTENDENTE ALVEAR,2-1-149,Supermercado,AR-L,Av. Sarmiento 1065,La Anonima,Intendente Alvear,S.A. Importadora y Exportadora de la Patagonia,2,149
617.4569,617.46 kilómetros,1,-26.7896,-65.2226,Ejercito del Norte,9-1-551,Supermercado,AR-T,Av. Francisco De Aguirre Y Av. Ejército Del Norte 0,Vea,SAN MIGUEL DE TUCUMAN,Jumbo Retail Argentina S.A.,9,551
621.2046,621.20 kilómetros,1,-26.7299,-65.2614,Tafi Viejo,9-1-728,Supermercado,AR-T,Av. Leandro Alem 618,Vea,TAFI VIEJO,Jumbo Retail Argentina S.A.,9,728
621.277,621.28 kilómetros,1,-26.730685,-65.258454,TUCU-TAFI VIEJO-ALEM-MU,2011-1-240,Autoservicio,AR-T,Avda Leandro Niceforo Alem 390,Musimundo,TAFI VIEJO,Electronica Megatone S.A,2011,240
621.5121,621.51 kilómetros,1,-32.6981,-62.1046,Marcos Juarez.,9-1-503,Supermercado,AR-X,Boulevard Lardizabal Ignacio Maria 900,Vea,MARCOS JUAREZ,Jumbo Retail Argentina S.A.,9,503
622.4392,622.44 kilómetros,1,-32.700000,-62.095010,MARCOS JUAREZ,2-1-264,Supermercado,AR-X,Bv. Lardizabal 250,La Anonima,Marcos Juares,S.A. Importadora y Exportadora de la Patagonia,2,264
624.0928,624.09 kilómetros,1,-34.264470,-62.710670,RUFINO,2-1-114,Supermercado,AR-S,H. Yrigoyen 277,La Anonima,Rufino,S.A. Importadora y Exportadora de la Patagonia,2,114
625.3825,625.38 kilómetros,1,-35.912270,-64.285850,CASTEX 2,2-1-187,Supermercado,AR-L,Av. Independencia 2575,La Anonima,Eduardo Castex,S.A. Importadora y Exportadora de la Patagonia,2,187
630.0976,630.10 kilómetros,1,-30.725230,-62.009680,MORTEROS,2-1-221,Supermercado,AR-X,Bv 9 De Julio 2339,La Anonima,Morteros,S.A. Importadora y Exportadora de la Patagonia,2,221
630.341,630.34 kilómetros,1,-30.709885,-62.010235,CDB - Morteros - Bv 25 de Mayo ,2009-1-50,Supermercado,AR-X,25 De Mayo 340,CETROGAR,Morteros,CETROGAR  S.A,2009,50
635.1471,635.15 kilómetros,1,-31.896450,-61.860850,QUIJOTE SAN JORGE,2-1-156,Supermercado,AR-S,Bartolome Mitre 1143,La Anonima,San Jorge,S.A. Importadora y Exportadora de la Patagonia,2,156
636.0481,636.05 kilómetros,2,-35.662563,-63.783195,Gral Pico,11-2-1077,Hipermercado,AR-L,Calle 319 352,Changomas,GENERAL PICO,Wal Mart Argentina S.R.L.,11,1077
636.8521,636.85 kilómetros,1,-35.666879647168656,-63.77597430949379,Gral. Pico,13-1-75,Supermercado,AR-L,Calle N°1 Oeste 698,Cooperativa Obrera Limitada de Consumo y Vivienda,General Pico,Cooperativa Obrera Limitada de Consumo y Vivienda,13,75
637.2244,637.22 kilómetros,1,-35.655920,-63.757040,GENERAL PICO,2-1-109,Supermercado,AR-L,Calle 7 1064,La Anonima,General Pico,S.A. Importadora y Exportadora de la Patagonia,2,109
637.3653,637.37 kilómetros,1,-35.665450,-63.766320,STELLA MARIS,2-1-196,Supermercado,AR-L,Calle 9 51,La Anonima,General Pico,S.A. Importadora y Exportadora de la Patagonia,2,196
637.5979,637.60 kilómetros,1,-35.6598318,-63.7559761,Gral. Pico I,2005-1-19,Autoservicio,AR-L,Calle 13 956,Naldo,General Pico,Naldo Lombardi SA,2005,19
637.5979,637.60 kilómetros,1,-35.6598318,-63.7559761,Gral Pico II,2005-1-34,Supermercado,AR-L,Calle 17 967,Naldo,General Pico,Naldo Lombardi SA,2005,34
637.8559,637.86 kilómetros,1,-35.662,-63.7546,BAZAR AVENIDA SA - Gral. Pico,2008-1-55,Tradicional,AR-L,Calle 17 798,MEGATONE,General Pico,BAZAR AVENIDA S.A.,2008,55
637.8565,637.86 kilómetros,1,-35.6593,-63.751352,LAPA-GENERAL PICO-C 17-MU,2011-1-169,Autoservicio,AR-L,Calle 17 1102,Musimundo,GENERAL PICO,Electronica Megatone S.A,2011,169
644.3369,644.34 kilómetros,1,-35.0310930,-63.0187410,Gral Villegas,2005-1-10,Autoservicio,AR-B,Rivadavia 505,Naldo,General Villegas,Naldo Lombardi SA,2005,10
644.3743,644.37 kilómetros,1,-35.02964231976656,-63.01698911196581,Gral. Villegas,13-1-78,Supermercado,AR-B,Castelli 589,Cooperativa Obrera Limitada de Consumo y Vivienda,General Villegas,Cooperativa Obrera Limitada de Consumo y Vivienda,13,78
644.6074,644.61 kilómetros,1,-35.031650,-63.015600,DELTA VILLEGAS,2-1-127,Supermercado,AR-B,San Martin 200,La Anonima,General Villegas,S.A. Importadora y Exportadora de la Patagonia,2,127
644.9562,644.96 kilómetros,1,-35.033081,-63.012165,1075 - GENERAL VILLEGAS,15-1-1075,Autoservicio,AR-B,Pueyrredon 351,Supermercados DIA,BUENOS AIRES,DIA Argentina S.A,15,1075
646.9936,646.99 kilómetros,1,-35.03745,-62.98867,ACA VILLEGAS,19-1-01648,Autoservicio,AR-B,Ruta Nacional 188 Km 360 0,FULL,GRAL.VILLEGAS,Operadora de Estaciones de Servicios S.A.,19,01648
648.1564,648.16 kilómetros,1,-28.4608,-62.8349,BAZAR AVENIDA SA - Añatuya,2008-1-369,Tradicional,AR-G,Av. 25 De Mayo Norte 9,MEGATONE,Anatuya,BAZAR AVENIDA S.A.,2008,369
650.1664,650.17 kilómetros,1,-37.3894817,-68.9273660,Rincón de los Sauces,2005-1-61,Autoservicio,AR-Q,Mosconi 356,Naldo,Rincón de los Sauces,Naldo Lombardi SA,2005,61
650.8006,650.80 kilómetros,1,-37.395400,-68.923060,RINCON DE LOS SAUCES,2-1-172,Supermercado,AR-Q,Belgrano 1419,La Anonima,Rincon de los Sauces,S.A. Importadora y Exportadora de la Patagonia,2,172
655.77,655.77 kilómetros,1,-37.178799243985814,-70.6675814688424,Andacollo,13-1-117,Autoservicio,AR-Q,Cordillera Del Viento Esq 0,Cooperativa Obrera Limitada de Consumo y Vivienda,Andacollo,Cooperativa Obrera Limitada de Consumo y Vivienda,13,117
658.4403,658.44 kilómetros,1,-29.8828,-61.9481,BAZAR AVENIDA SA - Ceres,2008-1-14,Tradicional,AR-S,Av. De Mayo 565,MEGATONE,Ceres,BAZAR AVENIDA S.A.,2008,14
659.3662,659.37 kilómetros,1,-29.87736,-61.940098,SAFE-CERES-AV MAYO-MU,2011-1-194,Autoservicio,AR-S,Avda De Mayo 626,Musimundo,CERES,Electronica Megatone S.A,2011,194
662.8795,662.88 kilómetros,1,-33.744187,-61.982983,Venado Tuerto,10-1-259,Hipermercado,AR-S,Bvard. 12 De Octubre 1060,Hipermercado Carrefour,Venado Tuerto,INC S.A.,10,259
663.6353,663.64 kilómetros,1,-33.75042,-61.97705,VENADO TUERTO,19-1-03338,Autoservicio,AR-S,Ruta 8 E H.Yrigoyen 0,FULL,VENADO TUERTO,Operadora de Estaciones de Servicios S.A.,19,03338
664.2861,664.29 kilómetros,1,-33.746570,-61.967960,VENADO TUERTO,2-1-067,Supermercado,AR-S,Av.Casey 799,La Anonima,Venado Tuerto,S.A. Importadora y Exportadora de la Patagonia,2,067
664.3873,664.39 kilómetros,1,-33.7456,-61.966387,SAFE-VENADO TUERTO-25MAY-MU,2011-1-33,Autoservicio,AR-S,25 De Mayo 748,Musimundo,VENADO TUERTO,Electronica Megatone S.A,2011,33
664.5171,664.52 kilómetros,1,-33.7475140,-61.9657310,Venado Tuerto,2005-1-3,Autoservicio,AR-S,Belgrano 602,Naldo,Venado Tuerto,Naldo Lombardi SA,2005,3
664.6189,664.62 kilómetros,1,-33.75,-61.965641,244 - VENADO TUERTO,15-1-244,Autoservicio,AR-S,Av Estrugamou 1657,Supermercados DIA,SANTA FE,DIA Argentina S.A,15,244
664.6315,664.63 kilómetros,1,-33.748274863171375,-61.964753744675130,SFE VENADO T.,24-1-356,Autoservicio,AR-S,Belgrano 499,SIMPLICITY,San Francisco De Venado Tuerto,Farmacity S.A.,24,356
665.1648,665.16 kilómetros,2,-33.7666,-61.9666,Venado Tuerto,9-2-953,Supermercado,AR-S,San Martin 760,Disco,VENADO TUERTO,Jumbo Retail Argentina S.A.,9,953
667.016,667.02 kilómetros,1,-37.375996247434266,-70.27250250874124,Chos Malal II,13-1-132,Supermercado,AR-Q,General Paz 365,Cooperativa Obrera Limitada de Consumo y Vivienda,Chos Malal,Cooperativa Obrera Limitada de Consumo y Vivienda,13,132
667.1487,667.15 kilómetros,1,-37.37714668362251,-70.27291075070644,Chos Malal I,13-1-131,Autoservicio,AR-Q,Sarmiento 390,Cooperativa Obrera Limitada de Consumo y Vivienda,Chos Malal,Cooperativa Obrera Limitada de Consumo y Vivienda,13,131
668.5632,668.56 kilómetros,1,-30.941909789656144,-61.56712484058117,Sunchales,13-1-135,Autoservicio,AR-S,Lisandro De La Torre 450,Cooperativa Obrera Limitada de Consumo y Vivienda,Sunchales,Cooperativa Obrera Limitada de Consumo y Vivienda,13,135
668.7937,668.79 kilómetros,1,-31.3165,-61.52125,ACA SUSANA,19-1-00889,Autoservicio,AR-S,Ruta 34 Km 213.800(Ascendente) 0,FULL,SUSANA,Operadora de Estaciones de Servicios S.A.,19,00889
668.8494,668.85 kilómetros,1,-30.94654,-61.563421,SAFE-SUNCHALES-JBJUSTO-MU,2011-1-196,Autoservicio,AR-S,Dr Juan Bautista Justo 204,Musimundo,SUNCHALES,Electronica Megatone S.A,2011,196
668.9847,668.98 kilómetros,1,-30.950000,-61.561480,SUNCHALES,2-1-261,Supermercado,AR-S,Avellaneda 558,La Anonima,Sunchales,S.A. Importadora y Exportadora de la Patagonia,2,261
669.6913,669.69 kilómetros,1,-30.9445,-61.5549,BAZAR AVENIDA SA - Sunchales,2008-1-10,Tradicional,AR-S,H. Irigoyen 1012,MEGATONE,Sunchales,BAZAR AVENIDA S.A.,2008,10
670.2863,670.29 kilómetros,1,-31.258890,-61.510560,QUIJOTE MAX 1,2-1-151,Supermercado,AR-S,Lincoln 1598,La Anonima,Rafaela,S.A. Importadora y Exportadora de la Patagonia,2,151
671.3084,671.31 kilómetros,1,-31.242521,-61.501379,Rafaela,1001-1-1,Tradicional,Santa Fe,Parana 899,Lario,Rafaela,RAFAELA ALIMENTOS S.A.,1001,1
671.5644,671.56 kilómetros,1,-31.2341,-61.4995,megatone.net,2008-1-104,Web,AR-S,Calle 3 1045,MEGATONE,Rafaela,BAZAR AVENIDA S.A.,2008,104
671.9207,671.92 kilómetros,1,-31.25197,-61.49409,RAFAELA,19-1-02917,Autoservicio,AR-S,Blvd Roca Esq Arenales 0,FULL,RAFAELA,Operadora de Estaciones de Servicios S.A.,19,02917
672.0554,672.06 kilómetros,1,-31.253490,-61.492540,QUIJOTE CENTRO,2-1-150,Hipermercado,AR-S,Rivadavia 53,La Anonima,Rafaela,S.A. Importadora y Exportadora de la Patagonia,2,150
672.1269,672.13 kilómetros,1,-31.252833,-61.491853,SAFE-RAFAELA-SAAV-ME,2011-1-276,Supermercado,AR-S,Av Santa Fe Esq Saavedra None,Musimundo,RAFAELA,Electronica Megatone S.A,2011,276
672.3885,672.39 kilómetros,1,-31.253,-61.4891,BAZAR AVENIDA SA - Rafaela,2008-1-1,Tradicional,AR-S,Avenida Santa Fe 280,MEGATONE,Rafaela,BAZAR AVENIDA S.A.,2008,1
672.443,672.44 kilómetros,1,-31.253073,-61.488522,Sfe. Rafaela [Bulevar Santa Fe 299],24-1-284,Supermercado,AR-S,Bulevar Santa Fe 299,SIMPLICITY,Rafaela,Farmacity S.A.,24,284
672.5771,672.58 kilómetros,1,-31.253475,-61.487082,SNF - Rafaela - Bv Santa Fe ,2009-1-69,Supermercado,AR-S,Av. Santa Fe 435,CETROGAR,Rafaela,CETROGAR  S.A,2009,69
672.594,672.59 kilómetros,1,-31.2533,-61.486921,SAFE-RAFAELA-STAFE-MU,2011-1-138,Autoservicio,AR-S,Avda Santa Fe 418,Musimundo,RAFAELA,Electronica Megatone S.A,2011,138
674.6665,674.67 kilómetros,1,-31.25759,-61.46484,RIO DE JANEIRO,19-1-02989,Autoservicio,AR-S,Santa Fe 2460 0,FULL,RAFAELA,Operadora de Estaciones de Servicios S.A.,19,02989
674.8522,674.85 kilómetros,1,-31.251890,-61.463420,QUIJOTE MAX2,2-1-152,Supermercado,AR-S,Aconcagua 555,La Anonima,Rafaela,S.A. Importadora y Exportadora de la Patagonia,2,152
675.637,675.64 kilómetros,1,-34.850330,-62.466760,AMEGHINO,2-1-117,Supermercado,AR-B,Calle 1 540,La Anonima,Florentino Ameghino,S.A. Importadora y Exportadora de la Patagonia,2,117
678.0771,678.08 kilómetros,1,-35.491900,-62.979870,AMERICA II,2-1-148,Supermercado,AR-B,Viamonte 240,La Anonima,America,S.A. Importadora y Exportadora de la Patagonia,2,148
678.1295,678.13 kilómetros,1,-35.487759,-62.975086,367 - AMERICA,15-1-367,Autoservicio,AR-B,San Martin 156,Supermercados DIA,BUENOS AIRES,DIA Argentina S.A,15,367
679.6593,679.66 kilómetros,1,-34.0099564,-61.9114227,6024 - MARIA TERESA,15-1-6024,Autoservicio,AR-S,Cl Calle Nº5 312,Supermercados DIA,SANTA FE,DIA Argentina S.A,15,6024
684.567,684.57 kilómetros,1,-36.600090,-64.302130,SANTA ROSA V,2-1-202,Supermercado,AR-L,Pilcomayo 1551,La Anonima,Santa Rosa,S.A. Importadora y Exportadora de la Patagonia,2,202
686.0691,686.07 kilómetros,2,-36.604293,-64.280899,Santa Rosa II,10-2-184,Supermercado,AR-L,Spinetto 1230,Market,Santa Rosa,INC S.A.,10,184
686.3477,686.35 kilómetros,1,-36.613500,-64.291230,LUCERO SANTA ROSA,2-1-143,Supermercado,AR-L,La Rioja 357,La Anonima,Santa Rosa,S.A. Importadora y Exportadora de la Patagonia,2,143
686.4979,686.50 kilómetros,2,-36.603195,-64.270973,La Pampa,11-2-1023,Hipermercado,AR-L,Circunvalacion Ing Marzo 1550,Changomas,SANTA ROSA,Wal Mart Argentina S.R.L.,11,1023
686.7064,686.71 kilómetros,1,-36.61772,-64.291614,LAPA-SANTA ROSA-SARMIENTO-MU,2011-1-55,Autoservicio,AR-L,Sarmiento 40 None,Musimundo,SANTA ROSA,Electronica Megatone S.A,2011,55
686.7408,686.74 kilómetros,1,-36.619164,-64.293416,LAPA-SANTA ROSA-AVELLA-ME,2011-1-308,Supermercado,AR-L,Avellaneda 215,Musimundo,SANTA ROSA,Electronica Megatone S.A,2011,308
686.7572,686.76 kilómetros,1,-36.6180570,-64.2912260,Santa Rosa I,2005-1-17,Supermercado,AR-L,Avellaneda 122,Naldo,Santa Rosa,Naldo Lombardi SA,2005,17
686.7812,686.78 kilómetros,1,-36.618338,-64.291249,Santa Rosa,10-1-147,Hipermercado,AR-L,Avellaneda 151,Hipermercado Carrefour,Santa Rosa,INC S.A.,10,147
686.7921,686.79 kilómetros,1,-36.6197579,-64.2934564,Santa Rosa II,2005-1-30,Supermercado,AR-L,Avellaneda 290,Naldo,Santa Rosa,Naldo Lombardi SA,2005,30
686.8505,686.85 kilómetros,2,-36.619127,-64.291278,LaPampa [Avellaneda Nº 236],24-2-281,Supermercado,AR-L,Avellaneda 236,FARMACITY,SANTA ROSA,Farmacity S.A.,24,281
686.9622,686.96 kilómetros,1,-36.6195677,-64.2899152,La Pampa,2002-1-152,Tradicional,AR-L,Cnel. Gil 267,Fravega,Santa Rosa,FRAVEGA S A C I E I,2002,152
687.0001,687.00 kilómetros,2,-36.634811,-64.315208,Santa Rosa II,11-2-1100,Hipermercado,AR-L,Avenida Pte. Juan D. Perón Esq. Utracán None,Changomas,SANTA ROSA,Wal Mart Argentina S.R.L.,11,1100
687.1217,687.12 kilómetros,1,-36.62120,-64.28967,ACA SANTA ROSA,19-1-01930,Autoservicio,AR-L,Av San Martin Y Cnel Giil 0,FULL,SANTA ROSA,Operadora de Estaciones de Servicios S.A.,19,01930
687.2207,687.22 kilómetros,2,-36.621000,-64.287458,La Pampa2 [Av. San Martin 31],24-2-303,Supermercado,AR-L,Av. San Martin 317,FARMACITY,SANTA ROSA,Farmacity S.A.,24,303
687.3415,687.34 kilómetros,1,-36.622040,-64.286940,LISANDRO DE LA TORRE,2-1-122,Supermercado,AR-L,Lisandro De La Torre 333,La Anonima,Santa Rosa,S.A. Importadora y Exportadora de la Patagonia,2,122
687.377,687.38 kilómetros,1,-36.6328,-64.3046,Santa Rosa,13-1-67,Supermercado,AR-L,Trenel 1735,Cooperativa Obrera Limitada de Consumo y Vivienda,Santa Rosa,Cooperativa Obrera Limitada de Consumo y Vivienda,13,67
687.755,687.76 kilómetros,1,-36.62680105632192,-64.28720752117282,Santa Rosa II,13-1-76,Supermercado,AR-L,Av. Roque Saenz Peña 899,Cooperativa Obrera Limitada de Consumo y Vivienda,Santa Rosa,Cooperativa Obrera Limitada de Consumo y Vivienda,13,76
687.7704,687.77 kilómetros,1,-36.632300,-64.296280,SANTA ROSA,2-1-090,Hipermercado,AR-L,Ameghino 1250,La Anonima,Santa Rosa,S.A. Importadora y Exportadora de la Patagonia,2,090
688.129,688.13 kilómetros,1,-36.627600,-64.281490,LURO,2-1-105,Supermercado,AR-L,Martin Fierro 1296,La Anonima,Santa Rosa,S.A. Importadora y Exportadora de la Patagonia,2,105
689.4303,689.43 kilómetros,1,-32.81907,-61.398071,SAFE-CANADA  DE GOMEZ-SM-MU,2011-1-25,Autoservicio,AR-S,Gral Jose De San Martin 152,Musimundo,CANADA DE GOMEZ,Electronica Megatone S.A,2011,25
696.7281,696.73 kilómetros,1,-32.03224,-61.219039,SAFE-GALVEZ-SARMIENTO-MU,2011-1-24,Autoservicio,AR-S,Sarmiento 328,Musimundo,GALVEZ,Electronica Megatone S.A,2011,24
697.1228,697.12 kilómetros,1,-33.459792,-61.488451,225 - FIRMAT,15-1-225,Autoservicio,AR-S,Cl Cordoba 886,Supermercados DIA,SANTA FE,DIA Argentina S.A,15,225
699.7325,699.73 kilómetros,1,-29.23668,-61.771788,SAFE-TOSTADO-RIVAD-MU,2011-1-195,Autoservicio,AR-S,Avda Bernardino Rivadavia 1255,Musimundo,TOSTADO,Electronica Megatone S.A,2011,195
699.9229,699.92 kilómetros,1,-29.233090,-61.771414,SNF - Tostado - 12 de Octubre ,2009-1-57,Supermercado,AR-S,12 De Octubre 1457,CETROGAR,Tostado,CETROGAR  S.A,2009,57
699.9875,699.99 kilómetros,1,-29.2337,-61.7704,BAZAR AVENIDA SA - Tostado,2008-1-13,Tradicional,AR-S,Av. Rivadavia 1263,MEGATONE,Tostado,BAZAR AVENIDA S.A.,2008,13
705.4502,705.45 kilómetros,1,-34.002525,-61.609768,6052 - VILLA CAÑAS,15-1-6052,Autoservicio,AR-S,Calle 57 Esquina 56 None,Supermercados DIA,SANTA FE,DIA Argentina S.A,15,6052
705.93,705.93 kilómetros,1,-34.0057765,-61.6057296,Villa Cañas,2005-1-32,Autoservicio,AR-S,Calle 52 94,Naldo,Villa Cañas,Naldo Lombardi SA,2005,32
707.1048,707.10 kilómetros,1,-37.881756,-67.796723,RION-CATRIEL-SM-MU,2011-1-267,Autoservicio,AR-R,Avda Gral San Martin 400,Musimundo,CATRIEL,Electronica Megatone S.A,2011,267
707.1686,707.17 kilómetros,1,-37.8826513,-67.8007128,Catriel,2005-1-64,Autoservicio,AR-R,San Martin 458,Naldo,Catriel,Naldo Lombardi SA,2005,64
707.2593,707.26 kilómetros,1,-37.88332175222674,-67.79881954193115,Catriel,13-1-105,Supermercado,AR-R,Av. San Martín 516,Cooperativa Obrera Limitada de Consumo y Vivienda,Catriel,Cooperativa Obrera Limitada de Consumo y Vivienda,13,105
707.307,707.31 kilómetros,1,-31.75922,-61.100751,SAFE-SAN CARLOS CENTRO-SM-MU,2011-1-32,Autoservicio,AR-S,San Martin 750,Musimundo,SAN CARLOS CENTRO,Electronica Megatone S.A,2011,32
707.3725,707.37 kilómetros,1,-37.884350,-67.798860,CATRIEL,2-1-188,Supermercado,AR-R,Ing. Eduardo Garro 538,La Anonima,Catriel,S.A. Importadora y Exportadora de la Patagonia,2,188
714.456,714.46 kilómetros,1,-33.051805,-61.179894,Casilda Centro,1001-1-2,Tradicional,Santa Fe,Buenos Aires 3440,Lario,Casilda,RAFAELA ALIMENTOS S.A.,1001,2
715.1481,715.15 kilómetros,1,-33.046735,-61.171152,SNF - Casilda - Buenos Aires ,2009-1-84,Supermercado,AR-S,Av. Buenos Aires 2540,CETROGAR,Casilda,CETROGAR  S.A,2009,84
715.2596,715.26 kilómetros,1,-33.0463,-61.169837,SAFE-CASILDA-BSAS-MU,2011-1-42,Autoservicio,AR-S,Buenos Aires 2469,Musimundo,CASILDA,Electronica Megatone S.A,2011,42
716.8215,716.82 kilómetros,1,-34.764896,-61.892818,353 - GRAL PINTO,15-1-353,Autoservicio,AR-B,Adolfo Alsina 540,Supermercados DIA,BUENOS AIRES,DIA Argentina S.A,15,353
717.5874,717.59 kilómetros,1,-33.046047,-61.144514,Casilda Planta,1001-1-3,Tradicional,Santa Fe,Ruta Nacional 33 744,Lario,Casilda,RAFAELA ALIMENTOS S.A.,1001,3
718.4238,718.42 kilómetros,1,-32.03042,-60.99063,COLASTINE,19-1-00856,Autoservicio,AR-S,Auto. Rosario /Santa Fe Km 101 0,FULL,AROCENA,Operadora de Estaciones de Servicios S.A.,19,00856
724.4613,724.46 kilómetros,1,-31.449940,-60.929910,QUIJOTE ESPERANZA,2-1-153,Supermercado,AR-S,Belgrano 1998,La Anonima,Esperanza,S.A. Importadora y Exportadora de la Patagonia,2,153
724.4834,724.48 kilómetros,1,-31.97313,-60.924486,SAFE-CORONDA-SM-MU,2011-1-16,Autoservicio,AR-S,San Martin 1830,Musimundo,CORONDA,Electronica Megatone S.A,2011,16
724.4911,724.49 kilómetros,1,-31.44938,-60.92963,SAFE-ESPERANZA-BELG-MU,2011-1-28,Autoservicio,AR-S,Gral Manuel Belgrano 2078,Musimundo,ESPERANZA,Electronica Megatone S.A,2011,28
725.6842,725.68 kilómetros,1,-25.798242,-64.971666,SALT-R DE LA FRONTERA-25MAY-MU,2011-1-248,Autoservicio,AR-A,25 De Mayo Norte 655,Musimundo,ROSARIO DE LA FRONTERA,Electronica Megatone S.A,2011,248
729.3551,729.36 kilómetros,1,-35.9731750,-62.7360006,Trenque Lauquen,2005-1-25,Supermercado,AR-B,Villegas 202,Naldo,Trenque Lauquen,Naldo Lombardi SA,2005,25
729.3648,729.36 kilómetros,1,-35.978690,-62.741700,TRENQUE LAUQUEN 3,2-1-203,Supermercado,AR-B,Simini 836,La Anonima,Trenque Lauquen,S.A. Importadora y Exportadora de la Patagonia,2,203
729.4628,729.46 kilómetros,1,-35.9707542,-62.7318736,1525 - TRENQUE LAUQUEN,15-1-1525,Autoservicio,AR-B,Cl Mitre 56,Supermercados DIA,BUENOS AIRES,DIA Argentina S.A,15,1525
729.5688,729.57 kilómetros,1,-35.98267013753607,-62.74294638634274,Trenque Lauquen,13-1-104,Supermercado,AR-B,Av. Regimiento 3 De Caballería 853,Cooperativa Obrera Limitada de Consumo y Vivienda,Trenque Lauquen,Cooperativa Obrera Limitada de Consumo y Vivienda,13,104
730.3861,730.39 kilómetros,1,-35.980110,-62.728320,TRENQUE LAUQUEN - SAIEP,2-1-103,Supermercado,AR-B,Av. Garcia Salinas 1100,La Anonima,Trenque Lauquen,S.A. Importadora y Exportadora de la Patagonia,2,103
731.2705,731.27 kilómetros,1,-36.01397,-62.75145,ACA TRENQUE LAUQUEN,19-1-01979,Autoservicio,AR-B,Ruta Nacional 5 Km 451 (Asc.) 0,FULL,TRENQUE LAUQUEN,Operadora de Estaciones de Servicios S.A.,19,01979
732.3136,732.31 kilómetros,1,-35.1421680,-61.9591500,Lincoln,2005-1-6,Autoservicio,AR-B,Guemes 45,Naldo,Lincoln,Naldo Lombardi SA,2005,6
732.4325,732.43 kilómetros,1,-36.00135,-62.721,ACA OPELAUQUEN,19-1-01981,Autoservicio,AR-B,Ruta Nacional 5 Km 446 (Desc.) 0,FULL,TRENQUE LAUQUEN,Operadora de Estaciones de Servicios S.A.,19,01981
732.5014,732.50 kilómetros,1,-34.49526188,-61.54184014,571 - VEDIA,15-1-571,Autoservicio,AR-B,Arenales 147,Supermercados DIA,BUENOS AIRES,DIA Argentina S.A,15,571
739.4111,739.41 kilómetros,1,-31.6653404,-60.7653809,1068 - SANTO TOME,15-1-1068,Autoservicio,AR-S,Rivadavia 1871,Supermercados DIA,SANTA FE,DIA Argentina S.A,15,1068
739.4896,739.49 kilómetros,1,-31.66736,-60.764521,SAFE-SANTO TOME-LUJAN-MU,2011-1-4,Supermercado,AR-S,Avda Ntra Sra De Lujan 2198,Musimundo,SANTO TOME,Electronica Megatone S.A,2011,4
